Counter,Time,Latitude,Longitude,Speed(km/h),Ax,Ay,Az,Gx,Gy,Gz,Yaw,Pitch,Roll,acceleration_magnitude,distance
1,1900-01-01 19:27:25.500,21.787792,39.069153,0.0,86,100,16456,2,-1,0,0.01,-0.02,0.42,0.0,0.0
2,1900-01-01 19:27:33.000,21.787788,39.069153,0.0,42,58,16776,3,0,0,0.01,-0.01,0.37,0.0,0.000445
3,1900-01-01 19:27:33.200,21.787788,39.069153,0.0,-96,-116,16700,-2,2,0,0.01,-0.01,0.33,16696.38547710252,0.0
4,1900-01-01 19:27:33.300,21.787788,39.069153,0.0,186,226,16118,-1,-1,0,0.01,-0.01,0.27,16696.38547710252,0.0
5,1900-01-01 19:27:33.500,21.787788,39.069153,0.0,74,86,16696,2,-1,1,0.01,-0.01,0.23,16642.386727870497,0.0
6,1900-01-01 19:27:33.700,21.787788,39.069153,0.0,126,152,16642,4,-1,0,0.01,0.01,0.18,16634.414687628778,0.0
7,1900-01-01 19:27:33.800,21.787788,39.069153,0.0,-214,-128,16634,-3,4,0,0.01,0.01,0.15,16634.228205720876,0.0
8,1900-01-01 19:27:34.000,21.787788,39.069153,0.0,80,-80,15692,-3,5,0,0.01,0.01,0.12,16634.03847536731,0.0
9,1900-01-01 19:27:34.100,21.787788,39.069153,0.0,16,46,16580,0,-2,0,0.01,0.01,0.09,16580.200722548565,0.0
10,1900-01-01 19:27:34.300,21.787788,39.069153,0.0,-46,-32,16786,1,3,0,0.01,0.02,0.06,16110.230414242995,0.0
11,1900-01-01 19:27:34.500,21.787788,39.069153,0.0,202,-110,16110,-2,5,0,0.01,0.02,0.04,16111.276423672954,0.0
12,1900-01-01 19:27:34.600,21.787788,39.069153,0.0,850,38,15782,-3,11,-1,0.01,-0.16,0.03,16132.440113014522,0.0
13,1900-01-01 19:27:34.800,21.787788,39.069153,0.0,858,-18,15906,-7,1,3,0.01,-0.57,0.01,16122.432322698707,0.0
14,1900-01-01 19:27:34.900,21.787788,39.069153,0.0,1000,-96,16732,3,1,-1,-0.01,-0.94,0.01,15983.047268903387,0.0
15,1900-01-01 19:27:35.100,21.787788,39.069153,0.0,834,-6,16100,-1,-2,5,-0.03,-1.3,0.01,16122.8471431072,0.0
16,1900-01-01 19:27:35.300,21.787788,39.069153,0.0,932,62,15960,-2,-2,3,-0.05,-1.5,0.06,16481.231750084702,0.0
17,1900-01-01 19:27:35.400,21.787788,39.069153,0.0,688,62,16460,-1,-1,4,-0.08,-1.62,0.07,16423.306731593366,0.0
18,1900-01-01 19:27:35.600,21.787788,39.069153,0.0,596,144,16574,-9,-3,4,-0.13,-1.73,0.08,16422.00694190573,0.0
19,1900-01-01 19:27:35.800,21.787788,39.069153,0.0,864,-10,16402,-2,2,2,-0.18,-1.85,0.02,16479.936529003986,0.0
20,1900-01-01 19:27:36.000,21.787788,39.069153,0.0,808,-260,15532,-6,7,6,-0.21,-2.04,-0.01,16424.740485012237,0.0
21,1900-01-01 19:27:36.100,21.787788,39.069153,0.0,1358,186,16722,4,8,2,-0.26,-2.44,-0.02,16232.903005932118,0.0
22,1900-01-01 19:27:36.300,21.787788,39.069153,0.0,1480,0,16176,-4,-9,10,-0.33,-2.92,-0.05,16189.057662507723,0.0
23,1900-01-01 19:27:36.500,21.787788,39.069153,0.0,1544,68,16132,-19,-6,16,-0.49,-3.09,-0.08,16243.564140914395,0.0
24,1900-01-01 19:27:36.700,21.787788,39.069153,0.0,1266,-516,15782,2,3,18,-0.71,-3.28,-0.29,16243.576453478465,0.0
25,1900-01-01 19:27:36.900,21.787788,39.069153,0.0,1880,-20,17388,30,-17,21,-0.88,-3.4,-0.25,16223.483966152276,0.0
26,1900-01-01 19:27:37.000,21.787788,39.069153,0.0,490,-30,16352,-19,19,30,-1.19,-3.47,-0.03,16400.94692388217,0.0
27,1900-01-01 19:27:37.200,21.787788,39.069153,0.0,1134,-4,16174,6,15,27,-1.57,-3.81,-0.12,16404.721881214566,0.0
28,1900-01-01 19:27:37.500,21.787785,39.069153,5.81,1896,300,16482,3,25,24,-1.92,-4.28,-0.11,16257.6252878457,0.000334
29,1900-01-01 19:27:37.700,21.787783,39.069157,5.89,1314,-914,16218,-44,-36,23,-2.43,-4.51,-0.35,16213.705560420172,0.000469
30,1900-01-01 19:27:38.000,21.787779,39.06916,6.45,1046,-458,15084,58,-30,26,-2.89,-4.38,-0.66,16211.680850547238,0.000542
31,1900-01-01 19:27:38.300,21.787775,39.069164,6.98,264,286,16132,-17,-32,17,-3.19,-3.84,0.48,16167.455458420165,0.000607
32,1900-01-01 19:27:38.600,21.787771,39.069168,7.54,548,248,16176,-17,26,29,-3.61,-3.33,0.18,16164.297572118623,0.000607
33,1900-01-01 19:27:39.000,21.787766,39.069176,8.67,1230,226,15300,24,27,24,-4.0,-3.78,-0.13,16206.394046795234,0.000996
34,1900-01-01 19:27:39.300,21.78776,39.06918,9.45,996,-238,16912,-10,10,19,-4.39,-3.84,0.39,16669.54804426323,0.000785
35,1900-01-01 19:27:39.600,21.787754,39.069187,10.41,966,-92,18744,20,-16,25,-4.72,-3.71,0.27,16668.11687024062,0.000984
36,1900-01-01 19:27:39.900,21.787748,39.069195,11.06,458,394,16640,15,8,21,-5.12,-3.54,0.22,16666.33397001272,0.001062
37,1900-01-01 19:27:40.200,21.787741,39.069199,11.78,932,58,14348,-14,6,25,-5.55,-3.45,-0.02,16666.180966256186,0.000881
38,1900-01-01 19:27:40.500,21.787733,39.069206,13.75,542,-150,16402,-16,2,25,-5.97,-3.59,0.12,16666.81013271586,0.001146
39,1900-01-01 19:27:40.900,21.787724,39.069218,14.02,970,156,17514,-5,-17,12,-6.39,-3.34,-0.11,16666.352570373638,0.001593
40,1900-01-01 19:27:41.100,21.787718,39.069221,14.2,1062,282,16828,-19,6,10,-6.54,-3.57,-0.15,16666.352570373638,0.000736
41,1900-01-01 19:27:41.400,21.78771,39.069229,14.54,1112,-354,16638,5,13,1,-6.58,-3.39,-0.37,16671.960052735252,0.001214
42,1900-01-01 19:27:41.800,21.787699,39.069241,14.87,940,-58,15488,7,-3,2,-6.61,-3.49,-0.09,16274.546260956095,0.001741
43,1900-01-01 19:27:42.100,21.787691,39.069252,15.05,1158,-842,16236,-23,-26,-13,-6.6,-3.76,-0.21,15534.214624499045,0.001443
44,1900-01-01 19:27:42.400,21.787683,39.06926,15.63,70,-736,15066,12,-12,-9,-6.39,-3.14,-0.4,15518.859236425853,0.001214
45,1900-01-01 19:27:42.800,21.787672,39.069275,17.1,1472,-444,15484,3,-23,2,-6.38,-3.52,-0.6,15507.93461425473,0.001974
46,1900-01-01 19:27:43.200,21.787659,39.069286,17.94,428,-238,15260,-12,4,2,-6.47,-3.22,-0.48,15496.726363977652,0.001838
47,1900-01-01 19:27:43.600,21.787645,39.069302,19.43,738,-312,15506,3,-17,20,-6.85,-3.51,-0.48,15504.716830693813,0.00227
48,1900-01-01 19:27:44.000,21.787632,39.069317,19.51,444,-546,15738,5,12,20,-7.41,-3.34,-0.41,15526.687476728575,0.002119
49,1900-01-01 19:27:44.500,21.787615,39.069336,20.4,902,158,15018,-30,-8,22,-8.14,-3.16,-0.6,15766.984619767978,0.002724
50,1900-01-01 19:27:45.100,21.787592,39.069359,21.26,1018,-494,17220,-13,20,13,-8.98,-3.22,-0.94,16322.430578807802,0.00349
51,1900-01-01 19:27:45.900,21.787563,39.069397,22.46,818,-498,16550,19,10,-1,-9.14,-2.95,-0.56,16323.705829253357,0.005079
52,1900-01-01 19:27:46.600,21.787535,39.069427,23.16,910,750,16290,-3,-11,-16,-8.62,-2.58,0.25,16586.187265312063,0.004392
53,1900-01-01 19:27:47.500,21.787498,39.069469,24.41,194,728,16298,-7,-15,-25,-7.88,-2.22,0.91,16567.139765209926,0.005978
54,1900-01-01 19:27:48.200,21.78747,39.069504,25.0,110,950,17518,11,5,-31,-7.04,-1.4,1.2,16314.62190796955,0.00477
55,1900-01-01 19:27:48.700,21.787449,39.06953,24.95,-534,242,16614,5,3,-29,-6.09,-0.77,1.16,16308.54144305983,0.003558
56,1900-01-01 19:27:49.200,21.787426,39.069553,24.97,-1400,-346,15182,-7,-26,-26,-5.18,0.18,1.11,16340.912459223322,0.00349
57,1900-01-01 19:27:49.700,21.787403,39.069576,25.02,-1386,-30,16282,-9,-16,-33,-4.49,0.95,1.06,16340.912459223322,0.00349
58,1900-01-01 19:27:50.100,21.787384,39.069595,24.69,-1930,-106,15512,-23,0,-27,-3.69,2.1,0.93,16342.422097106659,0.002883
59,1900-01-01 19:27:50.500,21.787367,39.069614,24.53,-1382,88,17426,-11,1,-21,-3.33,2.9,0.88,16926.72419577988,0.002724
60,1900-01-01 19:27:50.800,21.787352,39.069626,24.02,-2040,-356,16888,-2,0,-6,-3.03,3.67,0.55,16943.027828578928,0.002078
61,1900-01-01 19:27:51.200,21.787334,39.069641,23.11,-2272,-536,16816,8,-16,13,-3.12,4.52,0.13,16948.73021792488,0.002531
62,1900-01-01 19:27:51.500,21.787323,39.069653,21.94,-2426,-660,16530,-25,-3,36,-3.59,5.44,-0.24,16669.457219717744,0.001741
63,1900-01-01 19:27:51.800,21.787312,39.069664,21.11,-2048,-918,15570,5,9,58,-4.46,6.18,-0.88,16698.457533556804,0.001669
64,1900-01-01 19:27:52.100,21.7873,39.069672,20.12,-1924,-1050,16486,-11,-20,69,-5.65,6.7,-1.19,16680.865445174,0.001569
65,1900-01-01 19:27:52.400,21.787291,39.069683,18.31,-2880,-380,17404,3,1,96,-7.26,7.24,-1.75,16133.729141150226,0.001514
66,1900-01-01 19:27:52.700,21.787281,39.069691,17.05,-2790,-760,15128,-4,-14,117,-9.18,7.79,-2.22,16350.53381391568,0.001385
67,1900-01-01 19:27:53.000,21.787271,39.069698,14.74,-1578,-784,15984,-14,-9,136,-11.45,7.78,-2.63,16329.410277165554,0.001326
68,1900-01-01 19:27:53.300,21.787266,39.069706,12.81,-1746,-1436,16218,8,-21,165,-14.33,7.3,-3.26,16312.302351293027,0.000996
69,1900-01-01 19:27:53.600,21.78726,39.06971,10.55,-1260,-358,16240,-14,-11,181,-17.78,6.95,-3.29,16310.998497946102,0.000785
70,1900-01-01 19:27:53.900,21.787256,39.069717,8.82,-1476,-364,16456,1,1,190,-21.22,6.43,-3.52,16322.362329025784,0.000849
71,1900-01-01 19:27:54.200,21.787252,39.069721,8.03,-1278,-256,16738,18,-14,184,-24.74,6.03,-3.26,16320.443743967258,0.000607
72,1900-01-01 19:27:54.600,21.787251,39.069725,5.3,-1282,234,16268,-10,-2,162,-27.87,5.83,-2.76,16507.987036583232,0.000428
73,1900-01-01 19:27:54.900,21.787249,39.069729,4.78,-1288,268,16220,4,-4,150,-30.49,5.65,-2.54,16320.636384651181,0.000469
74,1900-01-01 19:27:55.100,21.787249,39.069729,4.34,-1326,564,16626,1,-5,125,-32.94,5.39,-1.84,16328.179445363772,0.0
75,1900-01-01 19:27:55.400,21.787249,39.069733,3.67,-802,758,15980,7,-7,96,-34.6,5.06,-1.27,16281.164208987022,0.000413
76,1900-01-01 19:27:55.700,21.787249,39.069736,3.14,-572,746,16654,4,-4,59,-35.89,4.6,-0.57,16271.45623476891,0.00031
77,1900-01-01 19:27:55.900,21.787251,39.069736,2.79,-360,660,16248,-2,-2,36,-36.64,4.11,-0.07,16265.383610600766,0.000222
78,1900-01-01 19:27:56.200,21.787251,39.06974,2.34,772,4,16186,-13,6,39,-37.08,3.33,-0.02,16339.642468548693,0.000413
79,1900-01-01 19:27:56.500,21.787251,39.069736,0.0,662,-60,16594,-2,-4,52,-37.67,2.35,-0.14,16339.500359558122,0.000413
80,1900-01-01 19:27:56.700,21.787251,39.069736,0.0,664,86,16326,-1,-3,77,-38.68,1.58,-0.26,16343.680491247986,0.0
81,1900-01-01 19:27:56.900,21.787251,39.069736,0.0,760,10,16328,-9,-4,94,-39.71,1.03,-0.33,16343.739229441957,0.0
82,1900-01-01 19:27:57.100,21.787251,39.069736,0.0,822,-44,15980,-10,-1,114,-41.2,0.54,-0.48,16343.739229441957,0.0
83,1900-01-01 19:27:57.400,21.787251,39.069736,0.0,914,-44,16184,-13,-8,135,-43.33,0.03,-0.67,16348.737076606254,0.0
84,1900-01-01 19:27:57.700,21.787251,39.069736,0.0,658,-256,16344,-15,-9,163,-46.17,-0.28,-0.94,16371.538351663841,0.0
85,1900-01-01 19:27:58.000,21.787251,39.069736,0.0,944,-538,16922,-23,-13,190,-48.91,-0.6,-1.2,16553.697592985078,0.0
86,1900-01-01 19:27:58.200,21.787251,39.069736,0.0,1196,-898,17130,6,-12,224,-52.65,-1.08,-1.64,16568.032592918207,0.0
87,1900-01-01 19:27:58.500,21.787252,39.06974,4.64,1284,-836,16518,-5,-8,276,-57.32,-1.55,-1.8,16918.180871476696,0.000428
88,1900-01-01 19:27:58.800,21.787254,39.069744,3.36,978,-990,16176,-7,-25,337,-62.89,-1.86,-2.13,16584.48853597843,0.000469
89,1900-01-01 19:27:59.100,21.787256,39.069748,3.37,738,-1510,16866,-35,-32,377,-68.43,-2.02,-2.59,16603.284855714548,0.000469
90,1900-01-01 19:27:59.400,21.787258,39.069748,3.71,718,-1600,16526,-30,-35,438,-75.46,-1.94,-3.56,16432.177579371517,0.000222
91,1900-01-01 19:27:59.600,21.787258,39.069752,4.01,588,-2512,16188,-8,-33,466,-83.26,-1.97,-4.5,16619.666663323907,0.000413
92,1900-01-01 19:27:59.900,21.78726,39.069756,4.42,984,-1318,16346,-8,-22,474,-91.69,-2.09,-4.46,16497.25249852229,0.000469
93,1900-01-01 19:28:00.200,21.787262,39.069756,4.98,760,-2480,17184,-28,-36,481,-100.48,-2.18,-5.27,16392.423249782198,0.000222
94,1900-01-01 19:28:00.500,21.787266,39.069759,5.68,272,-2110,16066,-13,-41,481,-107.38,-2.27,-5.74,16455.71329356464,0.000542
95,1900-01-01 19:28:00.700,21.787268,39.069763,6.13,714,-2804,16114,-16,-37,484,-115.64,-2.37,-6.35,16358.541132998382,0.000469
96,1900-01-01 19:28:01.000,21.787273,39.069763,6.41,772,-2806,16250,-19,-30,483,-127.35,-2.95,-7.29,16317.530327840668,0.000556
97,1900-01-01 19:28:01.400,21.787279,39.069767,7.08,260,-2726,15816,-20,-63,448,-136.65,-3.43,-7.71,16075.222175758567,0.000785
98,1900-01-01 19:28:01.700,21.787285,39.069771,8.36,532,-3278,15756,-53,-34,428,-145.85,-3.38,-8.31,16016.506235755662,0.000785
99,1900-01-01 19:28:02.100,21.787294,39.069775,11.05,636,-1750,14448,-27,-50,398,-155.09,-3.71,-8.55,15904.54941203931,0.001083
100,1900-01-01 19:28:02.400,21.787304,39.069775,11.55,1340,-1964,15770,-5,-8,311,-164.53,-4.34,-8.5,15896.151106478574,0.001112
101,1900-01-01 19:28:02.900,21.787321,39.069775,12.96,1172,-308,16988,-5,-16,131,-171.55,-5.07,-5.88,15849.37979859149,0.00189
102,1900-01-01 19:28:03.400,21.78734,39.069771,16.8,1554,-1066,15374,-8,-5,108,-174.64,-5.23,-5.22,16149.276144768843,0.002153
103,1900-01-01 19:28:03.900,21.787363,39.069763,17.84,760,-424,16164,1,4,65,-176.98,-5.33,-3.98,16209.359765271422,0.002688
104,1900-01-01 19:28:04.300,21.78738,39.069756,18.52,1506,52,16088,5,0,36,-177.99,-5.21,-3.3,16114.733258729417,0.002024
105,1900-01-01 19:28:04.700,21.787399,39.069744,21.4,434,-300,16466,4,-7,19,-178.5,-5.21,-2.52,16182.258556826979,0.002449
106,1900-01-01 19:28:05.000,21.787413,39.069733,22.47,878,1000,15972,-19,-5,11,-178.84,-5.02,-2.02,16270.457891528436,0.001927
107,1900-01-01 19:28:05.300,21.787428,39.069721,23.23,656,-114,16250,18,24,-3,-178.87,-5.23,-1.52,16487.470879428416,0.002078
108,1900-01-01 19:28:05.600,21.787443,39.06971,24.08,814,212,17146,8,-30,-9,-178.78,-5.0,-1.12,16650.516628621466,0.002018
109,1900-01-01 19:28:05.900,21.787457,39.069695,25.01,1308,1188,17118,-17,18,-5,-178.68,-4.79,-0.61,16783.4348093589,0.002196
110,1900-01-01 19:28:06.200,21.787472,39.069679,25.87,1678,-136,16626,66,16,-4,-178.56,-4.49,-0.6,16784.38655417588,0.002348
111,1900-01-01 19:28:06.500,21.787489,39.069668,26.17,1692,-186,16732,18,3,-1,-178.55,-4.43,0.22,16816.448257584,0.002205
112,1900-01-01 19:28:06.800,21.787504,39.069653,27.46,1192,624,16582,33,-11,-4,-178.47,-4.34,0.45,16806.498505042626,0.002276
113,1900-01-01 19:28:07.100,21.787521,39.069637,28.53,1864,132,17340,-10,2,-5,-178.5,-3.9,0.73,16767.06521726447,0.00251
114,1900-01-01 19:28:07.400,21.787539,39.069626,28.53,254,412,16722,-3,-7,-2,-178.47,-3.86,0.79,16769.49289632814,0.002301
115,1900-01-01 19:28:07.800,21.787563,39.069603,29.34,1206,234,15612,-25,21,-2,-178.47,-3.74,0.57,16790.795931104636,0.003572
116,1900-01-01 19:28:08.100,21.78758,39.069588,29.46,326,456,17884,-3,-30,-3,-178.44,-3.61,0.25,16790.795931104636,0.002444
117,1900-01-01 19:28:08.400,21.787598,39.069572,30.28,72,-1104,16786,2,24,-2,-178.41,-3.15,0.09,16796.44271862349,0.002595
118,1900-01-01 19:28:08.800,21.787622,39.069553,30.43,1198,128,17050,11,-26,0,-178.41,-3.33,0.16,17053.244383401066,0.003312
119,1900-01-01 19:28:09.100,21.78764,39.069538,30.75,544,354,16364,-15,12,-1,-178.39,-2.88,0.21,16797.41575362115,0.002531
120,1900-01-01 19:28:09.400,21.787659,39.069523,31.13,508,374,17042,17,3,0,-178.37,-3.03,0.07,16377.130029403808,0.00262
121,1900-01-01 19:28:09.700,21.787678,39.069504,32.07,-552,434,14672,-3,5,-4,-178.39,-3.05,0.29,16375.973742040502,0.002883
122,1900-01-01 19:28:10.100,21.787704,39.069485,32.33,1372,366,15972,-10,-20,2,-178.39,-2.96,0.29,16833.647970656864,0.003494
123,1900-01-01 19:28:10.400,21.787724,39.069466,33.03,358,256,16822,9,5,1,-178.38,-2.62,0.39,16733.8692477263,0.002966
124,1900-01-01 19:28:10.600,21.787737,39.069454,33.28,630,132,16862,-19,9,2,-178.38,-2.97,0.45,16759.599159884463,0.001904
125,1900-01-01 19:28:10.900,21.787758,39.069435,34.73,1700,776,16718,-12,-12,-1,-178.36,-2.94,0.39,16767.507745637096,0.00305
126,1900-01-01 19:28:11.100,21.787771,39.069424,34.83,1152,238,16238,-7,-4,2,-178.36,-2.78,0.46,16782.84087989873,0.001838
127,1900-01-01 19:28:11.400,21.787792,39.069408,34.94,674,450,16752,-6,10,2,-178.33,-2.57,0.61,16783.277510665193,0.00286
128,1900-01-01 19:28:11.600,21.787807,39.069397,34.89,912,466,16900,-33,4,-3,-178.3,-2.54,0.42,16777.03215708905,0.002018
129,1900-01-01 19:28:12.000,21.787834,39.06937,35.18,798,584,18536,10,-4,0,-178.28,-2.81,0.06,16777.03215708905,0.004097
130,1900-01-01 19:28:12.300,21.787855,39.069355,35.42,258,394,16518,23,-21,3,-178.27,-2.69,0.23,16714.598529429295,0.002802
131,1900-01-01 19:28:12.500,21.78787,39.069344,35.42,1160,430,15662,1,-2,-2,-178.26,-2.91,0.64,16640.560807857408,0.002018
132,1900-01-01 19:28:12.800,21.787891,39.069324,35.7,408,-64,16690,-20,-3,-4,-178.18,-2.59,0.51,16524.71252397451,0.003117
133,1900-01-01 19:28:13.100,21.787912,39.069305,36.44,236,1188,16630,0,5,-2,-178.18,-2.55,0.46,16193.430519812657,0.00305
134,1900-01-01 19:28:13.500,21.787941,39.069279,36.48,146,-50,15118,-21,-13,-2,-178.12,-2.31,0.52,16631.749637365276,0.004196
135,1900-01-01 19:28:13.800,21.787964,39.06926,36.64,130,580,16186,-6,22,0,-178.09,-2.41,0.49,16198.107667255455,0.003223
136,1900-01-01 19:28:14.100,21.787987,39.069241,37.86,1078,-160,16808,-11,4,1,-178.09,-2.67,0.35,16196.808944974315,0.003223
137,1900-01-01 19:28:14.400,21.788008,39.069221,37.81,984,648,15432,-10,1,3,-178.11,-2.78,0.35,16697.3637440166,0.003117
138,1900-01-01 19:28:14.800,21.788038,39.069195,37.84,550,218,16676,-14,3,0,-178.14,-2.68,0.46,16837.541507001548,0.004282
139,1900-01-01 19:28:15.100,21.788059,39.069176,38.01,798,276,18084,-8,3,0,-178.15,-2.79,0.31,16697.3637440166,0.00305
140,1900-01-01 19:28:15.400,21.788082,39.069157,38.74,958,280,19934,1,-28,1,-178.16,-2.79,0.1,17322.106338433558,0.003223
141,1900-01-01 19:28:15.700,21.788107,39.069134,38.96,332,-84,16548,-14,-22,4,-178.19,-2.74,0.07,17332.579842597006,0.003656
142,1900-01-01 19:28:16.000,21.78813,39.069115,40.82,316,-262,17312,14,-23,-1,-178.2,-2.61,0.2,17320.773770244792,0.003223
143,1900-01-01 19:28:16.300,21.788155,39.069092,41.4,834,1268,16844,-18,-29,4,-178.19,-2.46,0.51,16852.464389518824,0.003656
144,1900-01-01 19:28:16.700,21.788187,39.069065,41.61,476,278,17920,-37,3,-2,-178.19,-2.04,0.04,16853.649693760697,0.00452
145,1900-01-01 19:28:17.100,21.788219,39.069038,41.22,456,1248,15824,-24,-3,-9,-178.07,-1.84,0.18,16507.27330603089,0.00452
146,1900-01-01 19:28:17.700,21.788269,39.068996,41.5,1226,314,16490,6,-6,-4,-177.91,-1.84,0.31,15833.682704917388,0.007051
147,1900-01-01 19:28:18.300,21.788319,39.068954,42.47,354,586,15320,-5,-5,-7,-177.73,-1.93,0.77,15833.682704917388,0.007051
148,1900-01-01 19:28:18.900,21.78837,39.068909,43.06,-654,-148,13554,-23,-1,16,-177.86,-1.8,0.06,16496.787929775906,0.007331
149,1900-01-01 19:28:19.500,21.788422,39.068867,43.38,812,-388,18478,3,29,9,-178.23,-1.53,-0.74,16156.556687611379,0.007228
150,1900-01-01 19:28:20.100,21.788473,39.068821,44.55,276,314,17104,-4,29,18,-178.69,-1.69,-0.58,16170.080642965266,0.007397
151,1900-01-01 19:28:20.700,21.788527,39.068775,45.09,750,-188,16152,18,11,11,-179.1,-1.66,-0.51,16169.405307555377,0.007656
152,1900-01-01 19:28:21.300,21.78858,39.068733,45.03,882,318,15782,-14,-17,7,-179.37,-1.64,-0.48,16167.07679204871,0.007317
153,1900-01-01 19:28:21.900,21.788633,39.068684,46.0,558,-8,15086,-17,-17,4,-179.53,-1.49,-0.29,16063.817852552986,0.007767
154,1900-01-01 19:28:22.400,21.788677,39.068645,45.75,698,-144,16914,-35,32,1,-179.6,-1.35,-0.73,16058.343750212847,0.006337
155,1900-01-01 19:28:22.900,21.788723,39.068607,46.1,378,-754,16048,24,-1,0,-179.59,-1.35,-1.08,16919.03767948993,0.006446
156,1900-01-01 19:28:23.300,21.788757,39.068573,46.56,-208,-166,18368,19,-18,0,-179.58,-1.1,-0.75,18369.915514231416,0.005159
157,1900-01-01 19:28:23.700,21.788794,39.068542,46.57,-44,-1214,19872,12,1,2,-179.56,-1.23,-0.47,18369.915514231416,0.005213
158,1900-01-01 19:28:24.100,21.78883,39.068508,46.33,-26,-264,19224,-5,-67,1,-179.56,-1.01,-0.12,18368.768494376534,0.005324
159,1900-01-01 19:28:24.500,21.788866,39.068478,46.47,332,-66,17274,13,-32,-3,-179.57,-1.46,0.04,17274.24371716458,0.005062
160,1900-01-01 19:28:24.900,21.788902,39.068443,45.89,398,-88,16244,-13,-29,-2,-179.55,-1.25,0.25,16316.917968783198,0.005393
161,1900-01-01 19:28:25.300,21.788937,39.068413,46.3,-112,136,16316,-16,-28,-4,-179.51,-1.06,0.3,16247.526457895061,0.004974
162,1900-01-01 19:28:25.600,21.788963,39.06839,46.23,160,876,13106,-14,34,-1,-179.48,-0.95,0.17,16248.919471767962,0.003741
163,1900-01-01 19:28:25.900,21.78899,39.068367,46.05,512,-386,15948,-11,24,0,-179.41,-0.76,-0.05,16324.075594042071,0.003828
164,1900-01-01 19:28:26.200,21.789017,39.06834,46.12,698,38,17392,6,40,1,-179.39,-0.69,-0.12,17400.507578803557,0.004097
165,1900-01-01 19:28:26.600,21.789053,39.06831,46.65,730,-184,17406,27,-36,-2,-179.4,-0.94,0.2,17400.507578803557,0.005062
166,1900-01-01 19:28:27.000,21.789089,39.068279,46.68,350,-186,17708,36,35,1,-179.39,-0.88,0.43,17411.485634488516,0.005125
167,1900-01-01 19:28:27.300,21.789116,39.068253,46.59,-228,30,15850,-28,-8,-1,-179.35,-0.89,0.53,17411.485634488516,0.004027
168,1900-01-01 19:28:27.600,21.789145,39.06823,46.78,436,650,17970,12,11,-2,-179.28,-0.55,0.44,15855.254649484505,0.004005
169,1900-01-01 19:28:27.900,21.789171,39.068207,47.11,566,812,15526,-14,37,5,-179.24,-0.32,0.35,15861.026826785206,0.003741
170,1900-01-01 19:28:28.300,21.789207,39.068172,47.07,-134,210,15258,11,-13,-1,-179.24,-0.6,0.15,16044.900373638971,0.005393
171,1900-01-01 19:28:28.600,21.789236,39.06815,47.18,254,534,16668,29,28,-2,-179.22,-0.54,0.39,16037.885770886385,0.003944
172,1900-01-01 19:28:28.900,21.789263,39.068123,47.13,-220,332,16034,-1,1,0,-179.22,-0.42,0.59,16463.934159246386,0.004097
173,1900-01-01 19:28:29.200,21.789289,39.0681,46.8,120,222,17252,-33,2,-1,-179.22,-0.47,0.61,16669.910257706848,0.003741
174,1900-01-01 19:28:29.500,21.789318,39.068073,46.6,198,-90,16462,-3,4,-2,-179.17,-0.16,0.13,17129.59847748919,0.004263
175,1900-01-01 19:28:29.800,21.789345,39.06805,46.47,-280,-82,17128,-1,-28,-4,-179.13,0.01,-0.05,17252.612208010705,0.003828
176,1900-01-01 19:28:30.100,21.789371,39.068027,46.52,74,238,19716,13,-41,0,-179.09,0.07,-0.08,17128.356138287178,0.003741
177,1900-01-01 19:28:30.400,21.789398,39.068001,46.59,188,-444,22140,-47,-16,-11,-179.01,0.05,0.19,17810.34250091783,0.004027
178,1900-01-01 19:28:30.700,21.789425,39.067978,46.55,-272,494,14084,15,25,-9,-178.89,0.06,0.39,17810.248173453394,0.003828
179,1900-01-01 19:28:31.000,21.789454,39.067955,46.69,280,-160,17810,5,-6,-9,-178.76,0.31,0.63,16634.325114052568,0.004005
180,1900-01-01 19:28:31.400,21.78949,39.067921,46.68,-732,-58,16632,-6,15,-5,-178.64,0.49,0.66,16211.524542744275,0.005324
181,1900-01-01 19:28:31.700,21.789516,39.067898,46.89,-1460,402,16190,9,11,-5,-178.53,0.96,0.45,16649.40803752494,0.003741
182,1900-01-01 19:28:32.000,21.789543,39.067871,46.86,-760,1146,15860,-3,-41,-7,-178.43,1.11,0.48,16212.812957657903,0.004097
183,1900-01-01 19:28:32.300,21.789572,39.067848,46.84,-1254,42,17546,-9,-4,-1,-178.32,1.6,0.4,16212.812957657903,0.004005
184,1900-01-01 19:28:32.500,21.789589,39.067833,46.78,-152,936,15758,-6,-9,-7,-178.26,1.56,0.23,15878.327871662053,0.002444
185,1900-01-01 19:28:32.800,21.789618,39.06781,46.51,-288,64,18314,24,19,-2,-178.22,2.08,0.13,16110.701536556377,0.004005
186,1900-01-01 19:28:33.100,21.789644,39.067787,46.03,-1232,-256,15572,-9,-22,1,-178.2,2.0,0.12,16108.844278842602,0.003741
187,1900-01-01 19:28:33.400,21.789671,39.06776,45.44,26,552,16108,-17,28,0,-178.17,1.73,0.17,17020.832059567474,0.004097
188,1900-01-01 19:28:33.800,21.789705,39.06773,44.77,-92,-116,17098,-16,-4,-2,-178.12,1.44,0.16,17050.143107903816,0.004888
189,1900-01-01 19:28:34.200,21.78974,39.067703,43.97,-1040,-338,17018,17,2,-2,-178.09,1.4,0.18,17099.21612238409,0.004787
190,1900-01-01 19:28:34.600,21.789774,39.067673,43.69,-1130,182,17442,26,0,3,-178.09,1.3,0.24,17451.631556963377,0.004888
191,1900-01-01 19:28:35.000,21.789808,39.067642,43.35,200,206,19002,1,-36,0,-178.2,1.64,0.05,17453.96379049756,0.004954
192,1900-01-01 19:28:35.300,21.789833,39.067623,42.69,-568,-690,18888,6,-29,6,-178.27,1.77,-0.18,17445.65791250075,0.003402
193,1900-01-01 19:28:35.700,21.789867,39.067593,42.7,374,-308,16456,-20,-1,2,-178.32,1.75,-0.29,16577.84943833186,0.004888
194,1900-01-01 19:28:35.900,21.789883,39.067581,42.17,662,-296,16574,-19,-18,5,-178.36,1.98,-0.37,16578.21088055041,0.002168
195,1900-01-01 19:28:36.200,21.789907,39.067558,41.77,-128,332,16274,-9,-42,3,-178.39,2.03,-0.5,16460.241067493513,0.003572
196,1900-01-01 19:28:36.500,21.789932,39.067539,40.35,228,-104,17132,-8,23,6,-178.43,2.2,-0.55,16344.832088461479,0.003402
197,1900-01-01 19:28:36.900,21.789965,39.067513,39.71,-1174,-802,13902,5,-15,5,-178.48,1.92,-0.43,16354.680430995893,0.004547
198,1900-01-01 19:28:37.200,21.789988,39.067493,39.51,-704,636,16344,11,11,4,-178.55,1.71,-0.15,17142.189475093313,0.003287
199,1900-01-01 19:28:37.500,21.79001,39.067474,39.09,-570,156,17966,4,-3,2,-178.56,1.69,-0.03,16359.917970454497,0.003136
200,1900-01-01 19:28:37.800,21.790033,39.067451,38.79,-18,452,18426,4,3,2,-178.61,1.83,0.03,16360.18153933507,0.00349
201,1900-01-01 19:28:38.100,21.790054,39.067432,38.61,-980,158,16304,-14,-10,0,-178.67,1.92,0.06,16314.311018244074,0.00305
202,1900-01-01 19:28:38.400,21.790077,39.067413,37.75,-558,1192,16158,15,-1,-3,-178.68,2.06,-0.07,16168.404126567346,0.003223
203,1900-01-01 19:28:38.700,21.7901,39.067394,37.33,-482,-530,15978,9,8,-10,-178.56,2.09,0.13,16168.404126567346,0.003223
204,1900-01-01 19:28:39.000,21.790121,39.067375,36.73,-1156,-230,15866,29,23,-11,-178.4,2.51,0.29,16174.338440876028,0.00305
205,1900-01-01 19:28:39.300,21.790142,39.067356,36.32,-432,544,16276,0,21,-7,-178.26,2.43,0.53,16283.703387129108,0.00305
206,1900-01-01 19:28:39.700,21.790171,39.067333,36.04,-406,598,17120,0,-8,-11,-178.03,2.61,0.53,16308.23166379482,0.004005
207,1900-01-01 19:28:40.000,21.790192,39.067314,35.57,-600,136,16300,-15,-13,-11,-177.8,2.85,0.43,16404.51669510565,0.00305
208,1900-01-01 19:28:40.300,21.790213,39.067299,34.28,-76,286,17298,6,-2,-6,-177.65,3.03,0.43,17130.162054107954,0.002802
209,1900-01-01 19:28:40.700,21.790239,39.067276,33.83,-1112,538,16390,-9,24,-9,-177.46,3.03,0.51,16403.472071485354,0.003741
210,1900-01-01 19:28:41.000,21.79026,39.067257,33.57,-516,286,17856,-11,-21,-7,-177.22,3.15,0.18,16559.791423807244,0.00305
211,1900-01-01 19:28:41.500,21.790293,39.067234,31.93,-1016,-262,16094,-5,9,-2,-176.99,3.5,-0.17,16559.39431259489,0.004371
212,1900-01-01 19:28:41.900,21.790318,39.067211,30.85,-840,-306,16536,4,-9,2,-177.0,3.18,-0.48,17123.74760383953,0.003656
213,1900-01-01 19:28:42.300,21.790342,39.067192,30.37,-822,-344,17752,13,9,2,-177.03,3.26,-0.54,16558.490994048945,0.003312
214,1900-01-01 19:28:42.800,21.790373,39.067169,29.35,-458,-58,17102,15,13,-2,-177.02,3.32,-0.58,17121.8413729365,0.004186
215,1900-01-01 19:28:43.300,21.790401,39.067146,27.97,-598,290,16290,11,-7,2,-177.04,3.26,-0.55,17115.332424466666,0.003916
216,1900-01-01 19:28:43.800,21.790428,39.067123,26.21,-1130,544,18068,21,18,-1,-177.01,3.91,-0.55,16303.996442590387,0.003828
217,1900-01-01 19:28:44.400,21.790457,39.067097,24.69,-610,298,15750,1,10,-2,-177.01,3.77,-0.65,16331.720668686445,0.004196
218,1900-01-01 19:28:44.700,21.790472,39.067085,24.46,-1718,-806,15982,8,-9,-3,-177.02,3.78,-0.68,16029.181638499203,0.002078
219,1900-01-01 19:28:45.000,21.790485,39.067074,23.79,-1208,-226,16502,3,-10,2,-177.06,3.86,-0.62,16029.209961816583,0.001838
220,1900-01-01 19:28:45.300,21.790501,39.067062,23.16,-1428,-358,15450,22,5,-3,-177.1,4.15,-0.65,16565.23987148994,0.002168
221,1900-01-01 19:28:45.600,21.790514,39.067051,21.48,-994,-228,17368,7,-8,2,-177.19,4.39,-0.49,16565.212464680313,0.001838
222,1900-01-01 19:28:45.900,21.790525,39.067043,20.92,-1556,404,17206,-6,2,0,-177.24,4.61,-0.45,17176.231949994155,0.001476
223,1900-01-01 19:28:46.300,21.790543,39.067028,20.13,-1578,416,16100,14,2,7,-177.31,4.7,-0.32,17187.346973864234,0.002531
224,1900-01-01 19:28:46.600,21.790554,39.06702,19.26,-1110,460,17112,19,2,3,-177.44,4.67,-0.05,16719.536476828536,0.001476
225,1900-01-01 19:28:46.900,21.790565,39.067013,18.83,-1684,-46,16640,0,-12,1,-177.51,4.97,0.07,16727.372178558115,0.001421
226,1900-01-01 19:28:47.300,21.790579,39.067001,16.86,-2264,-78,16174,0,-9,3,-177.59,5.81,0.3,16762.41056650266,0.00199
227,1900-01-01 19:28:47.700,21.790592,39.06699,15.51,-2724,282,16902,3,9,3,-177.64,6.47,0.37,16762.4640193499,0.001838
228,1900-01-01 19:28:48.100,21.790604,39.066982,13.42,-2022,-18,14836,-8,14,4,-177.68,6.82,0.42,16299.91055190181,0.001569
229,1900-01-01 19:28:48.500,21.790613,39.066971,12.78,-488,-838,16990,-2,3,3,-177.75,5.6,0.54,16445.66094749615,0.001514
230,1900-01-01 19:28:48.800,21.790621,39.066967,11.84,630,534,15922,15,41,7,-177.98,2.21,0.82,16448.403691544052,0.000981
231,1900-01-01 19:28:49.300,21.790632,39.066959,10.47,1292,628,16436,-21,-49,2,-178.09,0.42,1.11,16453.22886244521,0.001476
232,1900-01-01 19:28:49.900,21.790642,39.066952,7.26,-2304,412,18946,20,26,12,-177.76,4.99,0.57,15943.595203090174,0.001326
233,1900-01-01 19:28:50.500,21.790649,39.06694,7.55,1358,-34,15494,-16,171,13,-177.91,-0.21,0.83,15838.16302479552,0.001463
234,1900-01-01 19:28:51.200,21.790661,39.066933,9.17,720,-24,15780,-16,21,-1,-177.99,-2.28,0.94,15510.738602658483,0.001518
235,1900-01-01 19:28:51.900,21.790674,39.066917,11.52,2280,540,13200,-23,-80,27,-178.54,-3.37,0.96,15446.826729137607,0.002195
236,1900-01-01 19:28:52.500,21.790689,39.066906,13.52,-10,-296,14116,-2,50,70,179.52,-0.94,0.05,15430.021905363583,0.002018
237,1900-01-01 19:28:53.200,21.790709,39.066887,14.34,-2072,-422,15430,18,-6,80,176.49,0.63,-0.81,15570.568390396029,0.002965
238,1900-01-01 19:28:53.800,21.790722,39.066872,14.29,-4204,1194,16864,24,48,66,173.77,4.74,0.03,16139.569882744707,0.002119
239,1900-01-01 19:28:54.400,21.790735,39.066853,13.54,-2712,-254,16670,-2,29,41,172.48,6.43,-0.06,16798.398137917793,0.002437
240,1900-01-01 19:28:54.800,21.790745,39.066841,12.74,-780,778,16004,-6,9,31,171.84,5.55,0.39,16691.00703972052,0.001665
241,1900-01-01 19:28:55.200,21.790751,39.066833,11.53,-612,64,16762,-4,5,23,171.47,4.77,0.41,16542.120299405393,0.001062
242,1900-01-01 19:28:55.500,21.790754,39.066826,10.53,-394,304,16300,3,0,15,171.03,3.93,0.69,16412.838023937238,0.000796
243,1900-01-01 19:28:55.800,21.790758,39.066822,8.42,-544,354,16528,4,-4,13,170.72,3.4,0.95,16536.48499530659,0.000607
244,1900-01-01 19:28:56.200,21.79076,39.066814,5.96,850,504,16400,4,-9,14,170.48,2.31,1.17,16540.158403110898,0.000855
245,1900-01-01 19:28:56.600,21.790762,39.066811,5.35,734,466,16712,2,-7,17,170.22,1.21,1.37,16550.85182097888,0.000381
246,1900-01-01 19:28:56.900,21.790764,39.066807,5.35,430,570,16738,-4,-2,20,169.9,0.48,1.41,16556.401782996207,0.000469
247,1900-01-01 19:28:57.200,21.790764,39.066803,4.1,1810,462,16222,-7,14,24,169.51,-0.59,1.28,16550.739681355633,0.000413
248,1900-01-01 19:28:57.600,21.790764,39.066799,2.98,1824,254,16528,-2,-8,27,169.07,-2.07,1.15,16536.031567458984,0.000413
249,1900-01-01 19:28:57.900,21.790766,39.066795,3.25,158,284,16334,-4,-11,29,168.52,-2.27,1.14,16549.30632987377,0.000469
250,1900-01-01 19:28:58.200,21.790766,39.066795,3.07,398,196,16632,-5,-1,31,167.93,-1.71,1.03,16652.68867180312,0.0
251,1900-01-01 19:28:58.500,21.790768,39.066792,3.04,790,462,17330,2,2,34,167.27,-2.07,1.08,16651.904996125817,0.000381
252,1900-01-01 19:28:58.800,21.790768,39.066792,3.37,1288,-124,16760,-2,4,40,166.57,-2.32,0.93,16682.92552282123,0.0
253,1900-01-01 19:28:59.100,21.79077,39.066788,3.48,2454,194,16348,-9,11,62,165.57,-3.24,0.74,16867.72492068803,0.000469
254,1900-01-01 19:28:59.400,21.790771,39.066784,3.97,2094,-490,16048,1,-11,88,163.95,-4.43,0.27,16458.50783029859,0.000428
255,1900-01-01 19:28:59.700,21.790771,39.06678,4.44,1900,-112,17016,19,7,98,162.05,-4.88,0.26,16387.89187174482,0.000413
256,1900-01-01 19:29:00.100,21.790775,39.066776,5.44,1662,-492,16232,-23,-14,118,159.59,-4.89,0.0,16334.764522330894,0.000607
257,1900-01-01 19:29:00.500,21.790777,39.066769,6.72,1762,-594,16270,2,-14,157,156.28,-4.96,-0.67,16327.672951158716,0.000756
258,1900-01-01 19:29:00.900,21.790781,39.066761,8.19,1212,-902,15840,-15,-13,189,153.06,-4.87,-1.13,16192.635116002584,0.000938
259,1900-01-01 19:29:01.200,21.790783,39.066753,9.62,982,-1198,15044,-5,-3,199,149.54,-4.69,-1.56,15931.407596317407,0.000855
260,1900-01-01 19:29:01.500,21.790787,39.066742,10.14,800,-1508,16122,-28,-14,226,145.31,-4.37,-2.0,15944.407922528826,0.00122
261,1900-01-01 19:29:01.800,21.790789,39.066734,10.89,1646,-1820,15832,-29,-28,238,141.21,-4.35,-2.82,16089.034775274744,0.000855
262,1900-01-01 19:29:02.100,21.790791,39.066727,11.79,1388,-1360,15992,-33,-16,243,136.84,-4.19,-3.54,16251.582815221414,0.000756
263,1900-01-01 19:29:02.400,21.790794,39.066715,12.68,1124,-1212,16292,-3,-35,224,132.71,-3.97,-4.13,16301.237867106902,0.001283
264,1900-01-01 19:29:02.700,21.790796,39.066704,13.62,1386,-1608,16164,-11,-16,208,128.63,-3.91,-4.14,16289.626269500477,0.001157
265,1900-01-01 19:29:03.000,21.790796,39.066689,14.36,1010,-1592,17230,-20,-11,216,124.47,-4.03,-4.57,16282.626815105725,0.001549
266,1900-01-01 19:29:03.300,21.790798,39.066677,14.92,1242,-2444,15176,27,5,207,119.93,-4.39,-5.02,16277.815086798351,0.001259
267,1900-01-01 19:29:03.700,21.790798,39.066658,15.76,1052,-1794,16032,-35,-6,194,116.43,-4.54,-4.66,16152.148711549185,0.001962
268,1900-01-01 19:29:04.000,21.790798,39.066647,16.05,1004,-1334,17144,-1,-10,184,113.02,-4.48,-5.11,16166.328092674601,0.001136
269,1900-01-01 19:29:04.300,21.790798,39.066631,16.31,1022,-1680,15820,-22,2,166,109.83,-4.51,-5.16,17015.25033609556,0.001652
270,1900-01-01 19:29:04.500,21.790798,39.066624,16.43,1740,-2086,16898,-13,-20,167,107.18,-4.77,-5.55,17037.613095736153,0.000723
271,1900-01-01 19:29:04.800,21.790798,39.066608,16.57,1810,-1694,17396,-1,7,161,104.19,-5.09,-5.8,15974.533357816747,0.001652
272,1900-01-01 19:29:05.100,21.790796,39.066597,17.01,1384,-1258,14936,-8,-12,145,100.86,-5.19,-5.59,17006.34834407434,0.001157
273,1900-01-01 19:29:05.500,21.790794,39.066574,17.79,1446,-180,14268,-9,2,95,97.93,-5.35,-4.57,17460.30572470024,0.002385
274,1900-01-01 19:29:05.900,21.790791,39.066555,18.61,1300,256,17602,20,-8,58,96.31,-5.21,-3.74,15265.59281521684,0.00199
275,1900-01-01 19:29:06.200,21.790785,39.06654,19.32,1614,-388,19880,0,-2,43,95.21,-4.97,-3.29,15280.925233767752,0.001686
276,1900-01-01 19:29:06.500,21.790779,39.066525,20.19,1490,-1492,15192,-3,-26,27,94.31,-5.43,-2.73,15385.053526068734,0.001686
277,1900-01-01 19:29:06.900,21.790771,39.066502,20.99,1320,-364,15208,7,-13,14,93.83,-5.2,-2.01,15385.053526068734,0.002536
278,1900-01-01 19:29:07.200,21.790764,39.066486,21.59,880,226,15324,13,-5,4,93.59,-5.1,-1.46,15375.587663565904,0.001826
279,1900-01-01 19:29:07.600,21.790754,39.066463,22.48,1238,938,17108,14,18,-4,93.56,-5.0,-0.86,16352.54659066899,0.002622
280,1900-01-01 19:29:07.900,21.790749,39.066444,22.94,346,408,16692,-23,-6,-7,93.58,-4.85,-0.51,16719.187300822967,0.002039
281,1900-01-01 19:29:08.200,21.790741,39.066429,23.67,820,398,16324,-1,-5,0,93.62,-4.53,-0.46,16716.86776881363,0.001786
282,1900-01-01 19:29:08.400,21.790735,39.066418,24.0,866,254,17006,0,3,-4,93.65,-4.43,-0.36,16716.35845511815,0.001317
283,1900-01-01 19:29:08.700,21.790728,39.066399,24.3,648,376,16194,14,-4,-2,93.69,-4.29,-0.23,16838.202635673442,0.002111
284,1900-01-01 19:29:08.900,21.790722,39.066387,24.47,1774,-260,17652,-5,-4,-4,93.72,-4.14,-0.03,16854.20137532479,0.001407
285,1900-01-01 19:29:09.200,21.790712,39.066368,25.02,1252,-548,16814,12,-5,-2,93.75,-4.1,0.09,16854.20137532479,0.002255
286,1900-01-01 19:29:09.400,21.790705,39.066357,25.69,1158,112,16280,28,10,0,93.79,-4.06,0.32,16854.20137532479,0.001377
287,1900-01-01 19:29:09.700,21.790695,39.066338,26.71,870,334,17620,30,1,-4,93.8,-4.02,0.54,16303.614445882851,0.002255
288,1900-01-01 19:29:09.900,21.790688,39.066322,27.21,788,378,15920,-4,0,-6,93.84,-3.91,0.7,16306.225804888143,0.001826
289,1900-01-01 19:29:10.100,21.790678,39.066311,27.85,682,-438,16028,3,-9,-2,93.88,-3.85,0.74,16261.263296558482,0.001589
290,1900-01-01 19:29:10.300,21.79067,39.066299,28.3,862,586,16504,4,5,-2,93.91,-3.8,0.8,16060.17658682494,0.001525
291,1900-01-01 19:29:10.500,21.790661,39.066284,28.87,1426,538,16234,-5,18,-3,93.93,-3.81,0.87,16278.860156657161,0.001844
292,1900-01-01 19:29:10.800,21.790646,39.066265,30.55,1056,988,15636,-25,-11,-1,93.98,-3.7,0.87,16278.860156657161,0.002575
293,1900-01-01 19:29:11.000,21.790634,39.066254,31.84,1152,744,19260,5,-3,-3,94.01,-3.68,0.82,16270.197786136467,0.001752
294,1900-01-01 19:29:11.200,21.790621,39.066238,32.71,474,188,16214,5,-9,-5,94.05,-3.69,0.81,16060.577075559893,0.002195
295,1900-01-01 19:29:11.500,21.790604,39.066219,34.06,1174,706,16010,-22,-5,-4,94.11,-3.6,0.79,16054.184501244528,0.002724
296,1900-01-01 19:29:11.700,21.790592,39.066208,34.25,1060,-126,14790,-13,-3,-5,94.16,-3.65,0.72,14921.12194173079,0.001752
297,1900-01-01 19:29:12.000,21.790573,39.066185,34.69,1082,496,14116,-16,8,-7,94.23,-3.66,0.6,14921.12194173079,0.003179
298,1900-01-01 19:29:12.200,21.790562,39.06617,35.27,1498,234,14880,8,12,-1,94.28,-3.73,0.6,14919.38470581143,0.001973
299,1900-01-01 19:29:12.500,21.790543,39.066147,35.78,206,-128,16066,21,1,-1,94.32,-3.71,0.63,15685.113834461004,0.003179
300,1900-01-01 19:29:12.700,21.790531,39.066132,36.1,1396,54,16978,9,-13,2,94.35,-3.79,0.82,15676.008930847163,0.002044
301,1900-01-01 19:29:12.900,21.790518,39.066116,36.52,968,516,15646,-21,-7,-1,94.38,-3.74,0.91,16062.073589670794,0.002195
302,1900-01-01 19:29:13.200,21.790501,39.066093,37.15,530,-502,15054,-24,-9,3,94.35,-3.65,0.73,15676.008930847163,0.003035
303,1900-01-01 19:29:13.400,21.790487,39.066074,37.35,832,-340,16040,-4,-4,4,94.3,-3.61,0.59,15669.071957202827,0.002504
304,1900-01-01 19:29:13.700,21.79047,39.066051,38.43,1326,382,14194,6,4,5,94.24,-3.53,0.58,16063.416822083651,0.003035
305,1900-01-01 19:29:13.900,21.790457,39.066032,39.13,432,174,16838,1,4,5,94.18,-3.5,0.66,16062.506031127272,0.002437
306,1900-01-01 19:29:14.100,21.790443,39.066017,39.66,878,-244,17156,-2,-3,6,94.11,-3.35,0.64,16256.659681496689,0.002196
307,1900-01-01 19:29:14.400,21.790422,39.065987,41.05,414,194,15320,5,-1,4,94.02,-3.28,0.62,16256.576023259018,0.003879
308,1900-01-01 19:29:14.600,21.790407,39.065968,42.16,1254,-132,16232,4,23,4,93.95,-3.03,0.63,16256.576023259018,0.002575
309,1900-01-01 19:29:14.900,21.790386,39.065937,43.9,1086,166,16026,-10,5,6,93.88,-3.04,0.58,16245.225021525555,0.003962
310,1900-01-01 19:29:15.100,21.790371,39.065918,44.5,634,536,16786,-7,7,3,93.84,-2.91,0.52,16520.569239587356,0.002575
311,1900-01-01 19:29:15.300,21.790356,39.065899,44.63,400,-564,16524,-5,0,2,93.82,-2.86,0.44,16511.84265913408,0.002575
312,1900-01-01 19:29:15.500,21.79034,39.06588,44.95,1786,814,16484,1,12,0,93.8,-2.89,0.47,16496.581706523324,0.002648
313,1900-01-01 19:29:15.700,21.790325,39.065857,45.45,944,-114,16126,6,-4,-2,93.8,-2.84,0.49,16407.947464567285,0.002902
314,1900-01-01 19:29:15.900,21.79031,39.065838,45.76,574,-398,16394,-8,21,-1,93.82,-2.6,0.48,16409.078828502228,0.002575
315,1900-01-01 19:29:16.200,21.790287,39.065811,46.28,652,-180,13802,-12,23,4,93.8,-2.65,0.4,16141.329189382142,0.003783
316,1900-01-01 19:29:16.400,21.790272,39.065788,46.49,694,212,18450,11,-25,-1,93.8,-2.52,0.3,15678.80173992898,0.002902
317,1900-01-01 19:29:16.600,21.790255,39.065769,46.65,706,230,15662,16,2,3,93.79,-2.48,0.26,15679.337486003673,0.002724
318,1900-01-01 19:29:16.800,21.790239,39.06575,46.68,794,752,15358,16,21,0,93.77,-2.39,0.27,15679.337486003673,0.002648
319,1900-01-01 19:29:17.000,21.790224,39.065731,46.86,1058,-486,16270,-14,14,0,93.77,-2.26,0.22,15677.912361025623,0.002575
320,1900-01-01 19:29:17.200,21.790207,39.065708,47.06,466,-652,14766,-17,13,4,93.74,-2.31,0.17,15379.684522122032,0.003035
321,1900-01-01 19:29:17.400,21.790192,39.065689,46.87,-190,-16,17226,-2,-1,2,93.73,-2.08,0.19,15344.779307634242,0.002575
322,1900-01-01 19:29:17.700,21.790167,39.065659,47.26,656,-534,14794,-5,-1,1,93.71,-2.08,0.25,15330.643430723969,0.004162
323,1900-01-01 19:29:17.900,21.790152,39.065639,47.25,22,140,15330,9,34,2,93.7,-1.84,0.25,15330.08349618488,0.002654
324,1900-01-01 19:29:18.100,21.790136,39.06562,47.55,48,-132,18188,7,-18,-1,93.69,-1.95,0.27,15330.643430723969,0.002648
325,1900-01-01 19:29:18.300,21.790119,39.065598,47.5,584,602,15192,-9,-8,1,93.68,-1.76,0.21,15754.695173185675,0.002955
326,1900-01-01 19:29:18.600,21.790096,39.065567,48.33,-102,-132,15754,-26,17,1,93.7,-1.53,0.13,15754.853728295924,0.004097
327,1900-01-01 19:29:18.800,21.790079,39.065548,48.44,130,502,15880,22,-11,-1,93.69,-1.5,0.09,15754.853728295924,0.002724
328,1900-01-01 19:29:19.000,21.790062,39.065525,48.39,250,100,15622,-15,-30,-1,93.68,-1.25,0.11,15880.653135183074,0.003035
329,1900-01-01 19:29:19.200,21.790047,39.065506,48.26,-366,-262,15920,-15,12,2,93.69,-1.09,-0.02,15920.651494207139,0.002575
330,1900-01-01 19:29:19.400,21.79003,39.065483,48.12,516,-62,16702,-13,29,1,93.69,-1.21,-0.17,15922.508596323632,0.003035
331,1900-01-01 19:29:19.600,21.790014,39.065464,47.89,106,-972,18682,-6,-45,-3,93.7,-1.1,-0.38,16294.451325527963,0.002648
332,1900-01-01 19:29:19.800,21.789997,39.065445,47.9,-460,-612,15104,10,20,3,93.7,-0.9,-0.46,16705.481974489692,0.002724
333,1900-01-01 19:29:20.000,21.789982,39.065422,47.78,494,-250,16292,-8,-14,1,93.68,-1.17,-0.33,17233.37529330804,0.002902
334,1900-01-01 19:29:20.200,21.789965,39.065403,47.99,232,22,17230,-6,2,2,93.68,-0.92,-0.33,16296.6795390963,0.002724
335,1900-01-01 19:29:20.400,21.789949,39.06538,47.87,300,-52,19822,60,18,5,93.65,-1.2,-0.29,17078.71423731892,0.002967
336,1900-01-01 19:29:20.600,21.789932,39.065361,47.97,338,-294,15346,9,-16,0,93.58,-1.47,0.2,17077.576994409952,0.002724
337,1900-01-01 19:29:20.800,21.789917,39.065342,47.98,-68,186,17076,-6,-17,0,93.58,-1.22,0.52,16186.016063256578,0.002575
338,1900-01-01 19:29:21.000,21.7899,39.065319,48.21,-22,-6,15558,8,1,3,93.55,-1.31,0.45,16187.083616266396,0.003035
339,1900-01-01 19:29:21.300,21.789875,39.065289,48.5,-228,478,16186,2,-13,-1,93.56,-1.31,0.52,16187.083616266396,0.004162
340,1900-01-01 19:29:21.500,21.78986,39.065266,48.9,1166,1036,16622,-31,31,0,93.57,-1.51,0.5,16024.960280762009,0.002902
341,1900-01-01 19:29:21.800,21.789835,39.065235,49.21,1210,-310,16018,-19,30,2,93.59,-1.69,0.15,16196.998610853801,0.004239
342,1900-01-01 19:29:22.100,21.78981,39.065205,49.61,422,212,14898,16,-8,1,93.58,-1.81,0.18,16653.16318301121,0.004162
343,1900-01-01 19:29:22.300,21.789793,39.065182,50.01,-444,422,16874,0,-23,-4,93.61,-1.54,0.31,16377.254104397354,0.003035
344,1900-01-01 19:29:22.500,21.789776,39.065159,50.05,996,-882,18966,-6,19,1,93.6,-1.56,0.21,16350.821508413575,0.003035
345,1900-01-01 19:29:22.700,21.789759,39.06514,50.34,1054,-496,16344,29,-7,5,93.54,-2.0,0.34,16351.081309809453,0.002724
346,1900-01-01 19:29:22.900,21.789742,39.065117,50.79,232,558,15376,6,5,3,93.54,-1.68,0.8,15635.405591157525,0.003035
347,1900-01-01 19:29:23.100,21.789724,39.065094,51.27,310,-368,15262,-8,7,1,93.51,-1.54,0.81,15630.404985156334,0.003106
348,1900-01-01 19:29:23.400,21.7897,39.065063,51.23,274,12,15628,-9,-3,1,93.52,-1.41,0.73,15629.726549111472,0.004167
349,1900-01-01 19:29:23.600,21.789682,39.065041,51.3,-162,10,16912,2,-8,2,93.49,-1.39,0.58,16913.356851908495,0.003028
350,1900-01-01 19:29:23.800,21.789665,39.065018,51.46,-368,212,17130,-7,-12,0,93.48,-1.45,0.55,16913.35815265555,0.003035
351,1900-01-01 19:29:24.000,21.789648,39.064995,51.5,214,-754,17040,1,-4,1,93.46,-1.52,0.54,16913.884710497467,0.003035
352,1900-01-01 19:29:24.200,21.789629,39.064972,51.44,332,386,15080,4,8,3,93.43,-1.54,0.53,15696.08371537308,0.003179
353,1900-01-01 19:29:24.300,21.789621,39.06496,51.51,758,134,15124,-4,22,0,93.42,-1.57,0.52,15696.08371537308,0.001525
354,1900-01-01 19:29:24.500,21.789602,39.064941,51.64,564,-224,15692,5,-29,-2,93.43,-1.62,0.52,15706.258625146857,0.002883
355,1900-01-01 19:29:24.700,21.789585,39.064919,51.78,-188,360,17166,23,-8,-7,93.48,-1.45,0.65,16156.396875541279,0.002955
356,1900-01-01 19:29:24.800,21.789576,39.064907,51.83,1046,956,16136,5,4,-9,93.55,-1.54,0.86,16340.311502538745,0.001593
357,1900-01-01 19:29:25.000,21.789558,39.064884,51.78,804,290,16328,12,27,-11,93.68,-1.39,0.89,16333.760987598662,0.003106
358,1900-01-01 19:29:25.200,21.789541,39.064861,51.79,-20,-194,16724,-12,-14,-10,93.74,-1.43,0.96,16333.249646044109,0.003035
359,1900-01-01 19:29:25.300,21.789532,39.06485,51.89,242,552,16316,-13,20,-9,93.85,-1.36,0.93,16332.368107534192,0.001514
360,1900-01-01 19:29:25.500,21.789515,39.064827,51.98,208,336,16690,-5,-21,-9,93.94,-1.45,0.88,16694.677594970202,0.003035
361,1900-01-01 19:29:25.700,21.789497,39.064804,52.1,584,-408,15576,-12,-15,-4,94.02,-1.24,0.86,16463.208192815884,0.003106
362,1900-01-01 19:29:25.800,21.789488,39.064793,52.07,-338,646,17002,1,8,-5,94.09,-1.08,1.01,16462.792108266447,0.001514
363,1900-01-01 19:29:26.000,21.789471,39.064774,52.21,328,-298,16458,34,41,0,94.11,-1.24,0.98,16463.96525749493,0.002724
364,1900-01-01 19:29:26.100,21.789461,39.064758,52.19,772,224,15992,-16,-6,-4,94.11,-1.4,1.13,17003.2676859479,0.001991
365,1900-01-01 19:29:26.300,21.789444,39.064739,52.26,-168,-758,17368,-10,9,-5,94.17,-1.2,0.93,16459.54883950347,0.002724
366,1900-01-01 19:29:26.500,21.789427,39.064716,52.18,-544,-122,17134,-49,-39,-10,94.2,-1.3,0.79,16432.866578902172,0.003035
367,1900-01-01 19:29:26.600,21.789417,39.064705,52.45,190,504,13896,-44,36,-3,94.25,-1.24,0.55,17135.257920439948,0.001589
368,1900-01-01 19:29:26.800,21.7894,39.064682,52.53,-392,16,16432,-25,-21,-13,94.39,-0.89,0.3,17135.06089863704,0.003035
369,1900-01-01 19:29:27.000,21.789383,39.064659,52.58,302,-180,17386,23,1,-3,94.47,-0.92,0.12,16437.368767536973,0.003035
370,1900-01-01 19:29:27.200,21.789366,39.064636,52.6,608,292,18106,74,16,-4,94.52,-1.01,0.34,16824.741067844105,0.003035
371,1900-01-01 19:29:27.400,21.789349,39.064613,52.69,1360,1684,15994,9,-16,-5,94.58,-1.13,0.95,17055.24306481734,0.003035
372,1900-01-01 19:29:27.600,21.78933,39.06459,52.59,-28,32,16822,-28,24,-5,94.63,-1.0,1.13,16835.516386496733,0.003179
373,1900-01-01 19:29:27.800,21.789312,39.064568,52.7,546,724,17044,-14,21,-6,94.69,-1.2,0.95,16245.209632380864,0.003028
374,1900-01-01 19:29:28.000,21.789295,39.064545,52.98,1262,-170,14888,-3,8,-4,94.76,-1.39,0.66,16238.814488748863,0.003035
375,1900-01-01 19:29:28.200,21.789278,39.064522,53.22,250,-450,16236,26,-12,-3,94.78,-1.19,0.61,16238.814488748863,0.003035
376,1900-01-01 19:29:28.400,21.789261,39.064499,53.33,-98,-530,15568,30,-14,3,94.79,-1.08,0.74,16239.795688369974,0.003035
377,1900-01-01 19:29:28.500,21.789251,39.064487,53.42,222,1380,16328,7,14,4,94.74,-1.03,1.03,16334.493809114501,0.001665
378,1900-01-01 19:29:28.700,21.789234,39.064461,53.43,-708,-272,16814,-25,1,0,94.75,-0.97,0.85,16336.89346234467,0.003283
379,1900-01-01 19:29:28.900,21.789217,39.064438,53.53,-174,-862,17006,20,43,7,94.71,-1.07,0.49,16337.900477111494,0.003035
380,1900-01-01 19:29:29.100,21.7892,39.064415,53.55,530,-568,15540,13,10,3,94.67,-1.44,0.47,16823.614474898073,0.003035
381,1900-01-01 19:29:29.200,21.78919,39.064404,53.53,28,-930,14670,-10,-55,3,94.67,-1.24,0.61,16784.51595965758,0.001589
382,1900-01-01 19:29:29.400,21.789173,39.064381,53.69,174,144,17352,-17,7,1,94.66,-0.85,0.51,15558.285252559164,0.003035
383,1900-01-01 19:29:29.600,21.789154,39.064358,53.8,694,-358,16774,8,17,1,94.64,-0.9,0.21,16560.78428094515,0.003179
384,1900-01-01 19:29:29.700,21.789145,39.064346,53.98,496,-856,15096,8,-8,2,94.63,-1.0,0.18,16557.95796588456,0.001593
385,1900-01-01 19:29:29.900,21.789127,39.06432,54.06,-134,370,16556,12,5,0,94.61,-0.99,0.28,16147.003932618583,0.003349
386,1900-01-01 19:29:30.100,21.78911,39.064297,54.15,210,886,16144,-3,15,1,94.58,-0.95,0.33,15753.079064106802,0.003035
387,1900-01-01 19:29:30.200,21.789101,39.064285,54.18,-98,-230,15750,4,12,4,94.55,-0.94,0.26,16147.003932618583,0.001593
388,1900-01-01 19:29:30.400,21.789083,39.064262,54.33,568,-350,15586,-20,-16,2,94.53,-0.88,0.29,16147.003932618583,0.003106
389,1900-01-01 19:29:30.600,21.789066,39.06424,54.56,322,-442,16338,3,-9,1,94.5,-0.82,0.23,16341.776035670053,0.002955
390,1900-01-01 19:29:30.800,21.789047,39.064213,54.43,-30,168,18046,7,5,3,94.48,-0.83,0.2,17510.211306549103,0.003498
391,1900-01-01 19:29:30.900,21.78904,39.064201,54.52,-122,-946,17512,6,-9,2,94.44,-0.87,0.16,17506.796280302115,0.001463
392,1900-01-01 19:29:31.100,21.789021,39.064178,54.59,158,54,17506,5,14,3,94.41,-0.74,0.18,17507.519070388014,0.003179
393,1900-01-01 19:29:31.300,21.789003,39.064156,54.48,160,250,13524,-3,31,9,94.36,-1.02,0.17,17506.796280302115,0.003028
394,1900-01-01 19:29:31.500,21.788986,39.064129,54.56,220,388,16434,4,-6,5,94.33,-0.92,0.16,16434.867568678488,0.003368
395,1900-01-01 19:29:31.600,21.788977,39.064117,54.86,62,-284,18846,-2,31,5,94.27,-0.76,0.17,16435.1742308988,0.001593
396,1900-01-01 19:29:31.800,21.78896,39.064095,54.87,586,-114,14060,-9,-4,6,94.21,-0.8,0.14,17737.73074550406,0.002955
397,1900-01-01 19:29:32.000,21.78894,39.064072,54.84,-278,-302,17736,6,-10,4,94.17,-0.55,0.09,17739.979368646404,0.003253
398,1900-01-01 19:29:32.200,21.788923,39.064045,54.83,370,22,18858,15,-9,5,94.13,-0.52,0.05,17740.225252233973,0.003368
399,1900-01-01 19:29:32.400,21.788904,39.064022,54.62,246,-706,17160,-3,11,5,94.07,-0.47,0.02,17740.276660751377,0.003179
400,1900-01-01 19:29:32.500,21.788895,39.064011,54.47,376,-54,18016,4,-6,4,94.02,-0.39,0.05,17161.848152224164,0.001514
401,1900-01-01 19:29:32.700,21.788877,39.063988,54.39,-62,-508,14312,1,3,4,93.96,-0.37,0.13,15746.206400273051,0.003106
402,1900-01-01 19:29:32.900,21.78886,39.063965,54.2,32,594,15356,0,3,1,93.95,-0.33,0.27,15746.241075253483,0.003035
403,1900-01-01 19:29:33.100,21.788841,39.063938,54.28,-262,-74,15746,6,5,-5,94.01,-0.35,0.44,15357.7912474418,0.003498
404,1900-01-01 19:29:33.300,21.788824,39.063915,54.41,-46,-614,16214,-33,-3,-5,94.09,-0.33,0.52,15356.184682400768,0.003035
405,1900-01-01 19:29:33.500,21.788807,39.063892,54.25,-14,-230,15332,-13,0,6,94.05,-0.27,0.33,15332.463598521928,0.003035
406,1900-01-01 19:29:33.700,21.788788,39.063869,54.19,186,492,15090,-13,-6,1,94.01,-0.26,0.29,15332.400986146951,0.003179
407,1900-01-01 19:29:33.900,21.788771,39.063847,54.2,-334,-110,14770,1,16,3,93.99,-0.23,0.23,15332.34567833637,0.002955
408,1900-01-01 19:29:34.000,21.788761,39.063835,54.29,90,1056,15906,-4,4,0,93.97,-0.1,0.32,15908.789771695394,0.001665
409,1900-01-01 19:29:34.200,21.788742,39.063812,54.3,-892,102,16562,21,-7,0,93.97,-0.04,0.34,16132.096453964066,0.003179
410,1900-01-01 19:29:34.400,21.788725,39.063789,54.17,660,284,21246,-7,-25,-1,93.96,-0.09,0.48,16132.096453964066,0.003035
411,1900-01-01 19:29:34.600,21.788706,39.063766,54.4,268,244,16130,-2,-1,0,93.96,-0.2,0.46,16131.465153543866,0.003179
412,1900-01-01 19:29:34.800,21.788689,39.06374,54.54,30,-66,15528,16,2,2,93.97,-0.11,0.41,15688.187148297282,0.003283
413,1900-01-01 19:29:35.000,21.788671,39.063717,54.53,192,-116,15684,-27,18,0,93.97,-0.1,0.61,15687.072894584253,0.003106
414,1900-01-01 19:29:35.200,21.788652,39.063694,54.46,440,668,15014,-18,-8,-2,93.98,-0.27,0.65,15553.325175022865,0.003179
415,1900-01-01 19:29:35.400,21.788635,39.063671,54.37,-156,508,16030,0,-20,-1,94.01,-0.12,0.55,15553.300871519203,0.003035
416,1900-01-01 19:29:35.600,21.788618,39.063648,54.37,284,-302,15552,-17,13,-3,94.04,-0.07,0.47,15552.898122215036,0.003035
417,1900-01-01 19:29:35.800,21.788599,39.063625,54.26,-340,-60,14606,6,24,-7,94.11,0.11,0.3,16033.717597612851,0.003179
418,1900-01-01 19:29:36.100,21.788574,39.063591,54.36,-1532,-104,16976,15,40,-4,94.13,-0.25,0.25,16239.879925664474,0.004478
419,1900-01-01 19:29:36.300,21.788555,39.063568,54.38,-446,170,16632,4,2,-5,94.19,-0.03,0.42,16635.58306762946,0.003179
420,1900-01-01 19:29:36.600,21.788528,39.063534,55.1,288,-102,16236,9,26,0,94.22,-0.11,0.49,16636.181893691835,0.004619
421,1900-01-01 19:29:36.800,21.788511,39.063507,54.97,44,696,16788,-15,26,-5,94.27,-0.02,0.62,16595.998674379316,0.003368
422,1900-01-01 19:29:37.100,21.788485,39.063473,54.72,-332,444,16590,1,-2,-3,94.33,-0.01,0.51,16595.998674379316,0.004548
423,1900-01-01 19:29:37.400,21.78846,39.063438,54.41,242,880,16470,4,-4,-4,94.4,-0.03,0.63,16779.93289617095,0.004559
424,1900-01-01 19:29:37.600,21.788441,39.063416,54.17,-486,14,16774,-16,8,-6,94.47,-0.05,0.73,16594.727475918367,0.003102
425,1900-01-01 19:29:37.900,21.788416,39.063381,54.37,452,-222,17482,-2,-8,-3,94.55,-0.06,0.62,16474.608948318015,0.004559
426,1900-01-01 19:29:38.200,21.788389,39.063347,54.04,-136,372,15418,-1,-8,-2,94.6,-0.29,0.79,16774.22630108465,0.004619
427,1900-01-01 19:29:38.500,21.788364,39.063313,53.89,116,438,16430,-11,7,-4,94.66,-0.24,0.87,17308.511085590235,0.004478
428,1900-01-01 19:29:38.700,21.788347,39.063286,53.82,-86,-502,17306,0,-7,-6,94.72,-0.22,0.75,16612.388268999734,0.003368
429,1900-01-01 19:29:39.000,21.788321,39.063251,53.77,-280,282,18580,21,-30,-2,94.78,-0.18,0.77,17308.511085590235,0.004628
430,1900-01-01 19:29:39.300,21.788296,39.063217,53.68,920,816,16608,-6,-4,0,94.78,-0.4,0.91,17306.863725123625,0.004478
431,1900-01-01 19:29:39.500,21.788279,39.063194,53.81,-190,-150,17362,-22,7,1,94.79,-0.13,0.73,17112.543937124017,0.003035
432,1900-01-01 19:29:39.800,21.788252,39.06316,53.93,1084,-494,17024,31,5,6,94.73,-0.39,0.46,17029.635932690988,0.004619
433,1900-01-01 19:29:40.000,21.788235,39.063137,53.83,380,766,17106,-9,-15,2,94.68,-0.6,0.48,17029.635932690988,0.003035
434,1900-01-01 19:29:40.200,21.788218,39.063114,53.77,-166,218,15238,-16,-1,2,94.64,-0.36,0.21,17029.635932690988,0.003035
435,1900-01-01 19:29:40.400,21.7882,39.063091,53.98,738,338,15158,-8,-17,2,94.63,-0.42,0.05,16860.54874551834,0.003106
436,1900-01-01 19:29:40.700,21.788176,39.063057,53.88,-520,-772,18196,14,18,5,94.6,-0.29,0.01,15239.261005704968,0.00441
437,1900-01-01 19:29:40.900,21.788158,39.063034,53.75,196,4,16858,19,25,2,94.58,-0.45,0.13,15902.308511659558,0.003106
438,1900-01-01 19:29:41.100,21.788141,39.063011,53.75,286,-344,15050,-1,-14,3,94.54,-0.52,0.31,16501.315583916334,0.003035
439,1900-01-01 19:29:41.400,21.788115,39.062977,53.75,-56,-314,15898,-18,-6,5,94.49,-0.42,0.36,15899.926289137318,0.004548
440,1900-01-01 19:29:41.600,21.788097,39.062954,53.85,104,66,16498,-8,-2,2,94.46,-0.39,0.3,15901.44068944698,0.003106
441,1900-01-01 19:29:41.800,21.78808,39.062931,54.0,174,-176,15896,-13,-19,3,94.44,-0.31,0.12,15941.3108620339,0.003035
442,1900-01-01 19:29:42.100,21.788054,39.062897,53.46,80,-612,15940,4,13,6,94.4,-0.3,0.12,16213.052272783185,0.004548
443,1900-01-01 19:29:42.300,21.788036,39.062874,53.43,326,62,16212,-18,-16,1,94.36,-0.35,0.3,15941.856102725304,0.003106
444,1900-01-01 19:29:42.600,21.788012,39.06284,53.82,368,560,17706,0,6,0,94.35,-0.09,0.15,15940.321326748717,0.00441
445,1900-01-01 19:29:42.900,21.787985,39.062805,54.16,-316,-170,14160,-1,16,4,94.34,-0.03,0.08,15541.543166622805,0.004698
446,1900-01-01 19:29:43.100,21.787968,39.062778,54.12,-556,602,15538,6,-22,-2,94.33,-0.02,0.17,15551.298981114085,0.003368
447,1900-01-01 19:29:43.300,21.787951,39.062756,53.85,832,48,15476,5,25,3,94.34,0.11,0.21,15544.38355162404,0.002955
448,1900-01-01 19:29:43.500,21.787933,39.062733,53.92,-850,966,16550,1,-17,-2,94.32,0.01,0.21,16555.993355881732,0.003106
449,1900-01-01 19:29:43.600,21.787924,39.062721,53.87,-400,196,16662,-5,10,0,94.31,-0.06,0.2,16665.212389885706,0.001593
450,1900-01-01 19:29:43.800,21.787907,39.062698,53.95,688,-176,17440,-4,11,-1,94.29,-0.14,0.16,16665.816871668787,0.003035
451,1900-01-01 19:29:44.000,21.787889,39.062675,53.75,262,480,18652,19,-13,0,94.29,-0.05,0.08,16665.816871668787,0.003106
452,1900-01-01 19:29:44.200,21.787872,39.062653,53.45,296,242,15326,3,0,2,94.27,-0.07,0.16,16347.891117817002,0.002955
453,1900-01-01 19:29:44.400,21.787853,39.06263,53.36,-216,464,15586,-6,-4,1,94.25,0.16,0.34,15762.025504356983,0.003179
454,1900-01-01 19:29:44.700,21.787828,39.062595,53.22,194,-146,16344,4,-8,-3,94.23,0.09,0.49,15757.052897036298,0.004559
455,1900-01-01 19:29:44.900,21.787811,39.062572,52.83,-176,894,15754,3,6,3,94.25,0.18,0.5,16351.532282939113,0.003035
456,1900-01-01 19:29:45.100,21.787794,39.06255,52.83,370,-1008,16990,26,8,2,94.24,-0.1,0.66,16346.16456542635,0.002955
457,1900-01-01 19:29:45.300,21.787777,39.062527,52.89,-606,770,16978,-1,-24,-4,94.25,0.14,0.91,16387.01119789695,0.003035
458,1900-01-01 19:29:45.500,21.78776,39.062508,52.99,308,182,16326,-4,11,1,94.25,-0.0,0.88,16387.01119789695,0.002724
459,1900-01-01 19:29:45.700,21.787743,39.062485,52.98,4,148,16386,4,-3,-1,94.25,0.02,0.83,16387.050253172474,0.003035
460,1900-01-01 19:29:45.900,21.787725,39.062462,52.52,-580,596,15414,-10,2,-2,94.26,0.12,0.85,16385.050381368987,0.003106
461,1900-01-01 19:29:46.100,21.78771,39.062439,52.68,-36,100,16592,6,-16,2,94.27,0.08,0.79,16386.330522725337,0.002902
462,1900-01-01 19:29:46.300,21.787693,39.062416,52.79,-84,274,16384,-19,-6,-2,94.28,0.12,0.84,16392.100170508962,0.003035
463,1900-01-01 19:29:46.500,21.787676,39.062393,52.79,306,514,14560,-25,12,-1,94.29,0.11,0.82,16594.264189773527,0.003035
464,1900-01-01 19:29:46.700,21.787659,39.06237,52.94,352,752,16690,14,16,2,94.29,0.08,0.8,16386.292930373238,0.003035
465,1900-01-01 19:29:46.900,21.787642,39.062347,52.97,8,-246,18586,-10,-5,-3,94.31,0.11,0.9,16700.716511575185,0.003035
466,1900-01-01 19:29:47.100,21.787624,39.062325,52.89,-18,-162,15300,-10,-17,3,94.31,0.12,0.94,16690.39124766103,0.003028
467,1900-01-01 19:29:47.300,21.787609,39.062302,52.88,306,752,17058,4,6,-1,94.31,0.21,0.99,16748.39765470118,0.002902
468,1900-01-01 19:29:47.500,21.787592,39.062283,52.77,-516,114,16298,-2,0,-4,94.32,0.21,0.97,16301.073093511359,0.002724
469,1900-01-01 19:29:47.700,21.787575,39.06226,52.51,-240,316,16748,0,-15,2,94.31,0.13,0.93,16673.48457881555,0.003035
470,1900-01-01 19:29:47.800,21.787565,39.062248,52.55,204,560,15730,-11,-14,-1,94.3,0.12,0.96,16464.85809231285,0.001665
471,1900-01-01 19:29:48.000,21.78755,39.062225,52.62,282,524,16664,-2,10,2,94.29,0.19,0.92,16673.884370475884,0.002902
472,1900-01-01 19:29:48.200,21.787533,39.062202,52.45,468,500,16456,3,8,1,94.29,0.06,0.91,16466.009231140375,0.003035
473,1900-01-01 19:29:48.400,21.787516,39.06218,52.42,554,286,17318,-16,10,1,94.29,0.11,0.88,16460.900825896497,0.002955
474,1900-01-01 19:29:48.600,21.787498,39.062157,52.62,-222,-6,15894,-8,9,1,94.28,-0.02,0.87,15944.111138599104,0.003106
475,1900-01-01 19:29:48.800,21.787483,39.062134,52.58,-520,-100,15940,-14,-15,-1,94.3,0.07,0.8,15897.157607572493,0.002902
476,1900-01-01 19:29:49.000,21.787466,39.062111,52.42,-274,586,14926,-21,21,-1,94.31,0.05,0.74,15895.636382353492,0.003035
477,1900-01-01 19:29:49.100,21.787458,39.062103,52.35,-228,220,15416,-17,-1,1,94.33,-0.05,0.69,15420.004280155048,0.001214
478,1900-01-01 19:29:49.300,21.787441,39.06208,52.24,-118,-10,18092,18,14,1,94.34,0.01,0.67,15199.012336332911,0.003035
479,1900-01-01 19:29:49.500,21.787424,39.062057,52.15,-368,680,13578,-22,24,-2,94.34,0.03,0.73,15188.05188297696,0.003035
480,1900-01-01 19:29:49.700,21.787407,39.062035,51.94,400,1344,15186,-19,21,-2,94.37,0.07,0.69,15186.459626917658,0.002955
481,1900-01-01 19:29:49.900,21.787392,39.062016,52.03,-90,6,14518,-22,-16,-3,94.39,-0.0,0.58,15201.483348673575,0.002575
482,1900-01-01 19:29:50.100,21.787374,39.061993,51.95,-324,-394,15680,2,18,-2,94.44,0.2,0.41,15191.26828148328,0.003106
483,1900-01-01 19:29:50.300,21.787357,39.06197,52.0,706,1324,18338,-1,-4,1,94.45,0.03,0.49,15680.259436629229,0.003035
484,1900-01-01 19:29:50.500,21.787342,39.061947,51.84,682,-476,14340,-14,5,0,94.47,0.04,0.48,16053.087304316263,0.002902
485,1900-01-01 19:29:50.700,21.787325,39.061928,51.56,-806,612,17858,19,39,-1,94.49,0.21,0.49,17173.11736406643,0.002724
486,1900-01-01 19:29:50.900,21.787308,39.061905,51.63,1152,138,16038,-22,-60,-5,94.51,-0.09,0.56,17170.1049501743,0.003035
487,1900-01-01 19:29:51.100,21.787292,39.061882,51.8,674,350,17156,-11,40,1,94.58,0.33,0.45,17172.801518680637,0.002967
488,1900-01-01 19:29:51.400,21.787268,39.061852,51.95,1422,-916,18022,32,-12,-6,94.6,0.01,0.36,16770.183302516405,0.004089
489,1900-01-01 19:29:51.600,21.787251,39.061829,52.09,-484,618,16730,30,6,-2,94.63,-0.01,0.47,17172.801518680637,0.003035
490,1900-01-01 19:29:51.800,21.787235,39.061806,52.26,1350,-74,13794,-22,6,-4,94.65,-0.48,0.5,16745.2128084417,0.002967
491,1900-01-01 19:29:52.100,21.78721,39.061771,52.07,-1554,574,17768,-4,56,-3,94.67,0.08,0.8,16196.548150763483,0.004559
492,1900-01-01 19:29:52.400,21.787186,39.061741,52.02,424,948,15462,-51,-49,-4,94.72,-0.51,0.61,16186.405407007449,0.004089
