Counter,Time,Latitude,Longitude,Speed(km/h),Ax,Ay,Az,Gx,Gy,Gz,Yaw,Pitch,Roll,acceleration_magnitude,distance
1,1900-01-01 11:10:02.300,21.498224,39.244835,0.0,-12,20,16746,-1,-13,1,0.0,-0.01,0.41,0.0,0.0
2,1900-01-01 11:10:02.400,21.498224,39.244835,0.0,-82,68,16818,-1,-16,-1,0.01,-0.01,0.36,0.0,0.0
3,1900-01-01 11:10:02.500,21.498224,39.244835,0.0,182,136,16022,2,3,0,0.0,-0.01,0.33,16576.14382176989,0.0
4,1900-01-01 11:10:02.600,21.498224,39.244835,0.0,-226,-30,16430,0,5,0,0.01,-0.01,0.31,16576.259771130517,0.0
5,1900-01-01 11:10:02.700,21.498224,39.244835,0.0,36,126,16576,-1,6,0,0.01,-0.02,0.3,16576.204269976886,0.0
6,1900-01-01 11:10:02.800,21.498224,39.244835,0.0,-56,74,16702,-1,7,-1,0.01,-0.02,0.27,16576.204269976886,0.0
7,1900-01-01 11:10:02.900,21.498224,39.244835,0.0,-36,4,16736,-1,-8,-1,0.01,-0.03,0.24,16576.39092203125,0.0
8,1900-01-01 11:10:03.000,21.498224,39.244835,0.0,102,148,16524,0,-25,0,0.01,-0.03,0.22,16524.173443776242,0.0
9,1900-01-01 11:10:03.100,21.498224,39.244835,0.0,110,108,16416,0,-27,0,0.01,-0.03,0.2,16416.008284598298,0.0
10,1900-01-01 11:10:03.300,21.498224,39.244835,0.0,16,-46,15764,3,21,0,0.01,-0.04,0.18,16416.288496490306,0.0
11,1900-01-01 11:10:03.400,21.498224,39.244835,0.0,-98,-30,16272,0,18,0,0.01,-0.03,0.17,16416.288496490306,0.0
12,1900-01-01 11:10:03.500,21.498224,39.244835,0.0,-8,96,16634,-3,11,1,0.01,-0.03,0.16,16272.194812009842,0.0
13,1900-01-01 11:10:03.600,21.498224,39.244835,0.0,108,158,16544,-2,-34,0,0.01,-0.03,0.14,16272.18891237439,0.0
14,1900-01-01 11:10:03.700,21.498224,39.244835,0.0,228,78,15942,2,16,0,0.01,-0.04,0.13,16332.188218361924,0.0
15,1900-01-01 11:10:03.800,21.498224,39.244835,0.0,-212,-182,16012,1,29,0,0.01,-0.04,0.12,16328.543474541751,0.0
16,1900-01-01 11:10:03.900,21.498224,39.244835,0.0,-228,-146,16332,-3,10,0,0.01,-0.04,0.1,16012.685096510204,0.0
17,1900-01-01 11:10:04.000,21.498224,39.244835,0.0,188,126,16328,1,-27,-1,0.01,-0.03,0.09,16328.568338957339,0.0
18,1900-01-01 11:10:04.100,21.498224,39.244835,0.0,148,-6,15822,1,32,-1,0.01,-0.05,0.08,16332.001591966613,0.0
19,1900-01-01 11:10:04.200,21.498224,39.244835,0.0,-136,-8,16438,-4,-3,0,0.01,-0.04,0.07,16328.747288141856,0.0
20,1900-01-01 11:10:04.300,21.498224,39.244835,0.0,4,56,16732,-1,-6,0,0.01,-0.05,0.07,16060.683048986428,0.0
21,1900-01-01 11:10:04.400,21.498224,39.244835,0.0,254,50,16060,2,7,0,0.01,-0.06,0.06,16060.01992526784,0.0
22,1900-01-01 11:10:04.500,21.498224,39.244835,0.0,256,-12,15978,1,17,0,0.01,-0.06,0.05,16060.02241592458,0.0
23,1900-01-01 11:10:04.600,21.498224,39.244835,0.0,24,-218,15838,-1,19,0,0.01,-0.05,0.04,16060.20734610858,0.0
24,1900-01-01 11:10:04.700,21.498224,39.244835,0.0,-100,-222,16092,-1,20,0,0.01,-0.05,0.03,16085.048088209123,0.0
25,1900-01-01 11:10:04.900,21.498224,39.244835,0.0,-154,-78,16084,0,21,0,0.01,-0.06,0.02,16093.047567194972,0.0
26,1900-01-01 11:10:05.000,21.498224,39.244835,0.0,-206,-154,16130,-1,10,0,0.01,-0.06,0.02,16131.470236776311,0.0
27,1900-01-01 11:10:05.100,21.498224,39.244835,0.0,-14,-114,16576,-3,6,-1,0.01,-0.06,0.02,16457.115421604114,0.0
28,1900-01-01 11:10:05.200,21.498224,39.244835,0.0,-168,-158,16456,-2,3,1,0.02,-0.06,0.01,16474.4003836255,0.0
29,1900-01-01 11:10:05.300,21.498224,39.244835,0.0,-14,96,16684,0,-20,-1,0.02,-0.06,0.01,16474.4003836255,0.0
30,1900-01-01 11:10:05.400,21.498224,39.244835,0.0,62,64,16474,1,-30,2,0.02,-0.06,-0.0,16474.13026535847,0.0
31,1900-01-01 11:10:05.500,21.498224,39.244835,0.0,-216,-186,16316,-1,12,0,0.02,-0.06,0.01,16474.124438039187,0.0
32,1900-01-01 11:10:05.600,21.498224,39.244835,0.0,8,70,16846,-1,-12,-1,0.02,-0.05,-0.0,16408.111652472384,0.0
33,1900-01-01 11:10:05.700,21.498224,39.244835,0.0,2,16,16408,-1,-26,-1,0.02,-0.06,-0.01,16316.112282035816,0.0
34,1900-01-01 11:10:05.800,21.498224,39.244835,0.0,226,60,16198,4,-2,0,0.02,-0.07,-0.01,16289.49010865595,0.0
35,1900-01-01 11:10:05.900,21.498224,39.244835,0.0,236,108,16050,2,12,0,0.02,-0.06,-0.01,16289.42393088227,0.0
36,1900-01-01 11:10:06.000,21.498224,39.244835,0.0,212,38,16288,0,-5,0,0.02,-0.06,-0.01,16289.42393088227,0.0
37,1900-01-01 11:10:06.200,21.498224,39.244835,0.0,40,-16,16652,-1,1,0,0.02,-0.06,-0.02,16652.09140018154,0.0
38,1900-01-01 11:10:06.300,21.498224,39.244835,0.0,20,30,16708,1,-23,0,0.03,-0.06,-0.02,16652.03903430448,0.0
39,1900-01-01 11:10:06.400,21.498224,39.244835,0.0,-52,168,16748,1,-5,0,0.03,-0.07,-0.02,16652.019697322005,0.0
40,1900-01-01 11:10:06.500,21.498224,39.244835,0.0,-12,-96,16444,-2,14,-2,0.03,-0.06,-0.01,16444.093042791992,0.0
41,1900-01-01 11:10:06.700,21.498224,39.244835,0.0,44,-54,15762,0,35,0,0.03,-0.07,-0.01,16444.119800098757,0.0
42,1900-01-01 11:10:06.800,21.498224,39.244835,0.0,-204,-218,16228,-2,13,0,0.03,-0.07,-0.01,16388.093360729916,0.0
43,1900-01-01 11:10:06.900,21.498224,39.244835,0.0,-32,122,16806,1,-28,1,0.03,-0.07,-0.01,16228.095267159359,0.0
44,1900-01-01 11:10:07.000,21.498224,39.244835,0.0,200,62,16388,2,-24,0,0.03,-0.08,-0.01,16228.274215085226,0.0
45,1900-01-01 11:10:07.100,21.498224,39.244835,0.0,174,-34,15690,1,34,-2,0.03,-0.08,-0.01,16276.273406403569,0.0
46,1900-01-01 11:10:07.200,21.498224,39.244835,0.0,88,-74,15912,0,30,0,0.03,-0.08,-0.02,16032.980259452701,0.0
47,1900-01-01 11:10:07.300,21.498224,39.244835,0.0,-84,-164,16276,0,20,1,0.03,-0.08,-0.01,16032.27756745747,0.0
48,1900-01-01 11:10:07.500,21.498224,39.244835,0.0,316,14,16032,2,8,0,0.03,-0.08,-0.01,16276.243915596742,0.0
49,1900-01-01 11:10:07.600,21.498224,39.244835,0.0,12,86,16786,-1,-32,1,0.03,-0.08,-0.01,16284.01043969206,0.0
50,1900-01-01 11:10:07.700,21.498224,39.244835,0.0,242,180,16284,1,-6,0,0.03,-0.09,-0.02,16554.227737952624,0.0
51,1900-01-01 11:10:07.800,21.498224,39.244835,0.0,6,-24,16554,-1,-6,0,0.03,-0.08,-0.02,16554.22640898692,0.0
52,1900-01-01 11:10:07.900,21.498224,39.244835,0.0,10,134,16648,-3,7,-1,0.03,-0.08,-0.02,16448.01860407508,0.0
53,1900-01-01 11:10:08.000,21.498224,39.244835,0.0,-184,-224,16290,-2,12,0,0.03,-0.08,-0.01,16448.18774211919,0.0
54,1900-01-01 11:10:08.200,21.498224,39.244835,0.0,-170,-218,16448,0,9,1,0.03,-0.08,-0.02,16291.272019090467,0.0
55,1900-01-01 11:10:08.300,21.498224,39.244835,0.0,-20,-76,15788,0,32,-1,0.03,-0.08,-0.03,16291.272019090467,0.0
56,1900-01-01 11:10:08.400,21.498224,39.244835,0.0,-236,-112,16188,-1,22,0,0.04,-0.08,-0.03,16448.18774211919,0.0
57,1900-01-01 11:10:08.500,21.498224,39.244835,0.0,90,164,16876,-1,4,0,0.04,-0.08,-0.03,16188.040153150103,0.0
58,1900-01-01 11:10:08.600,21.498224,39.244835,0.0,36,-2,16666,-2,4,0,0.04,-0.08,-0.04,16420.254322025587,0.0
59,1900-01-01 11:10:08.700,21.498224,39.244835,0.0,230,84,16116,3,12,0,0.04,-0.09,-0.04,16420.461503867667,0.0
60,1900-01-01 11:10:08.900,21.498224,39.244835,0.0,-78,120,16420,-3,-30,-1,0.03,-0.09,-0.04,16116.052618429861,0.0
61,1900-01-01 11:10:09.000,21.498224,39.244835,0.0,134,20,16022,1,33,0,0.04,-0.09,-0.04,16022.484326720372,0.0
62,1900-01-01 11:10:09.100,21.498224,39.244835,0.0,-32,-186,16006,1,22,-1,0.04,-0.09,-0.04,16022.252151305072,0.0
63,1900-01-01 11:10:09.200,21.498224,39.244835,0.0,92,86,15894,4,23,-1,0.04,-0.09,-0.04,16022.252151305072,0.0
64,1900-01-01 11:10:09.400,21.498224,39.244835,0.0,-36,84,16408,-1,-16,0,0.04,-0.09,-0.03,16402.246309576014,0.0
65,1900-01-01 11:10:09.500,21.498224,39.244835,0.0,-40,130,16402,0,-8,-1,0.04,-0.08,-0.03,16402.215582048666,0.0
66,1900-01-01 11:10:09.600,21.498224,39.244835,0.0,-4,-40,16678,-1,-24,0,0.04,-0.08,-0.02,16402.05426158565,0.0
67,1900-01-01 11:10:09.700,21.498224,39.244835,0.0,42,42,16372,-1,20,0,0.04,-0.08,-0.03,16402.04926221111,0.0
68,1900-01-01 11:10:09.900,21.498224,39.244835,0.0,52,-92,16064,-1,1,0,0.04,-0.09,-0.03,16372.102736056844,0.0
69,1900-01-01 11:10:10.000,21.498224,39.244835,0.0,-72,-166,16476,-2,-25,1,0.04,-0.08,-0.03,16372.061690575198,0.0
70,1900-01-01 11:10:10.100,21.498224,39.244835,0.0,58,68,16060,-1,2,0,0.04,-0.08,-0.04,16188.30145506316,0.0
71,1900-01-01 11:10:10.200,21.498224,39.244835,0.0,36,16,16650,-2,-8,0,0.04,-0.08,-0.03,16188.04793667229,0.0
72,1900-01-01 11:10:10.400,21.498224,39.244835,0.0,-162,-106,16188,-1,15,0,0.04,-0.08,-0.03,16172.153474413975,0.0
73,1900-01-01 11:10:10.500,21.498224,39.244835,0.0,96,40,16066,1,13,-2,0.04,-0.08,-0.03,16188.04793667229,0.0
74,1900-01-01 11:10:10.600,21.498224,39.244835,0.0,164,84,16172,1,27,0,0.05,-0.08,-0.04,16188.052507945482,0.0
75,1900-01-01 11:10:10.700,21.498224,39.244835,0.0,-10,-36,16686,-2,-4,1,0.05,-0.07,-0.04,16220.501595203523,0.0
76,1900-01-01 11:10:10.800,21.498224,39.244835,0.0,-50,112,16534,-1,-6,-1,0.05,-0.08,-0.03,16220.72254864129,0.0
77,1900-01-01 11:10:10.900,21.498224,39.244835,0.0,222,126,16220,1,27,-1,0.05,-0.09,-0.04,16220.507020435582,0.0
78,1900-01-01 11:10:11.000,21.498224,39.244835,0.0,128,-70,16024,0,17,0,0.05,-0.08,-0.04,16220.891714082798,0.0
79,1900-01-01 11:10:11.100,21.498224,39.244835,0.0,144,-8,15938,1,11,0,0.05,-0.09,-0.04,16220.994420811567,0.0
80,1900-01-01 11:10:11.300,21.498224,39.244835,0.0,82,170,16262,1,-12,-1,0.05,-0.09,-0.04,16262.606310182879,0.0
81,1900-01-01 11:10:11.400,21.498224,39.244835,0.0,26,152,16428,1,-19,0,0.05,-0.1,-0.04,16428.5903229705,0.0
82,1900-01-01 11:10:11.500,21.498224,39.244835,0.0,-14,114,16480,1,-27,0,0.06,-0.1,-0.04,16428.416113551542,0.0
83,1900-01-01 11:10:11.600,21.498224,39.244835,0.0,80,60,16544,-1,-23,0,0.06,-0.09,-0.04,16480.129732499074,0.0
84,1900-01-01 11:10:11.700,21.498224,39.244835,0.0,-42,-46,16370,-2,12,-1,0.06,-0.1,-0.03,16480.16504771721,0.0
85,1900-01-01 11:10:11.800,21.498224,39.244835,0.0,56,-24,16628,-2,-10,1,0.06,-0.08,-0.03,16544.09489818044,0.0
86,1900-01-01 11:10:11.900,21.498224,39.244835,0.0,86,48,16388,0,-10,1,0.06,-0.1,-0.03,16522.018036547473,0.0
87,1900-01-01 11:10:12.000,21.498224,39.244835,0.0,-72,-2,16722,-1,-12,-1,0.06,-0.09,-0.03,16522.01476818127,0.0
88,1900-01-01 11:10:12.200,21.498224,39.244835,0.0,14,-20,16522,-2,3,-1,0.06,-0.09,-0.03,16522.00895775087,0.0
89,1900-01-01 11:10:12.300,21.498224,39.244835,0.0,22,10,16488,-2,-4,0,0.06,-0.09,-0.03,16522.00895775087,0.0
90,1900-01-01 11:10:12.400,21.498224,39.244835,0.0,-38,22,16694,-2,-9,0,0.06,-0.08,-0.03,16488.00897622269,0.0
91,1900-01-01 11:10:12.500,21.498224,39.244835,0.0,148,10,16300,2,3,-1,0.06,-0.08,-0.03,16488.04682186462,0.0
92,1900-01-01 11:10:12.600,21.498224,39.244835,0.0,-50,-136,16224,-1,-4,1,0.06,-0.08,-0.02,16300.186133906569,0.0
93,1900-01-01 11:10:12.700,21.498224,39.244835,0.0,-314,-744,17610,4,-16,1,0.06,-0.14,-0.03,16224.311264272515,0.0
94,1900-01-01 11:10:12.800,21.498224,39.244835,0.0,152,-68,16086,-2,20,-1,0.07,-0.17,-0.02,16224.294129483724,0.0
95,1900-01-01 11:10:12.900,21.498224,39.244835,0.0,74,42,16204,1,15,0,0.07,-0.18,-0.02,16346.291934258363,0.0
96,1900-01-01 11:10:13.100,21.498224,39.244835,0.0,38,-90,16482,-1,7,0,0.07,-0.17,-0.02,16346.185610104885,0.0
97,1900-01-01 11:10:13.200,21.498224,39.244835,0.0,-104,-168,16346,0,6,0,0.07,-0.17,-0.03,16370.038729337204,0.0
98,1900-01-01 11:10:13.300,21.498224,39.244835,0.0,-44,-22,16550,-2,-6,1,0.07,-0.18,-0.01,16370.038729337204,0.0
99,1900-01-01 11:10:13.400,21.498224,39.244835,0.0,28,86,16370,0,0,-1,0.07,-0.17,-0.02,16370.038729337204,0.0
100,1900-01-01 11:10:13.500,21.498224,39.244835,0.0,148,22,16280,1,8,-1,0.07,-0.19,-0.03,16550.363138009994,0.0
101,1900-01-01 11:10:13.600,21.498224,39.244835,0.0,68,120,16676,2,-1,-1,0.07,-0.17,-0.02,16588.38352582915,0.0
102,1900-01-01 11:10:13.700,21.498224,39.244835,0.0,146,134,16588,-1,9,-1,0.08,-0.18,-0.02,16588.38352582915,0.0
103,1900-01-01 11:10:13.900,21.498224,39.244835,0.0,46,90,16680,-3,-17,0,0.08,-0.2,-0.03,16588.307930587736,0.0
104,1900-01-01 11:10:14.000,21.498224,39.244835,0.0,-130,82,16572,2,-17,-1,0.08,-0.18,-0.03,16572.2667127946,0.0
105,1900-01-01 11:10:14.100,21.498224,39.244835,0.0,-32,-24,15850,0,3,1,0.08,-0.19,-0.03,16572.07446278226,0.0
106,1900-01-01 11:10:14.200,21.498224,39.244835,0.0,88,-96,16218,-1,14,-1,0.08,-0.2,-0.02,16470.048573091703,0.0
107,1900-01-01 11:10:14.300,21.498224,39.244835,0.0,-76,38,16616,-1,-13,1,0.08,-0.16,-0.02,16470.034972640464,0.0
108,1900-01-01 11:10:14.400,21.498224,39.244835,0.0,260,-64,16470,0,10,1,0.08,-0.19,-0.03,16470.032179689268,0.0
109,1900-01-01 11:10:14.500,21.498224,39.244835,0.0,24,44,16588,0,-8,-1,0.08,-0.17,-0.02,16470.02052214872,0.0
110,1900-01-01 11:10:14.600,21.498224,39.244835,0.0,2,-22,15972,1,-6,0,0.08,-0.19,-0.02,16426.398631471235,0.0
111,1900-01-01 11:10:14.700,21.498224,39.244835,0.0,186,10,16182,-1,22,0,0.08,-0.17,-0.03,16426.020577120922,0.0
112,1900-01-01 11:10:14.900,21.498224,39.244835,0.0,114,-10,16426,-1,14,-1,0.08,-0.19,-0.03,16426.003165712587,0.0
113,1900-01-01 11:10:15.000,21.498224,39.244835,0.0,-178,204,16622,-1,8,0,0.08,-0.15,-0.01,16426.967462072847,0.0
114,1900-01-01 11:10:15.100,21.498224,39.244835,0.0,-746,64,16460,-2,3,-2,0.08,-0.03,-0.01,16432.840655224525,0.0
115,1900-01-01 11:10:15.200,21.498224,39.244835,0.0,-474,-88,16310,0,-11,0,0.1,0.08,-0.02,16467.83871672297,0.0
116,1900-01-01 11:10:15.300,21.498224,39.244835,0.0,-504,-118,16318,-1,8,0,0.1,0.16,-0.01,16467.741678809514,0.0
117,1900-01-01 11:10:15.400,21.498224,39.244835,0.0,-522,206,16532,-1,-4,-3,0.11,0.28,0.0,16325.00830015103,0.0
118,1900-01-01 11:10:15.500,21.498224,39.244835,0.0,-464,30,16664,0,-4,-2,0.13,0.38,0.0,16324.721008335793,0.0
119,1900-01-01 11:10:15.700,21.498224,39.244835,0.0,-438,-64,16218,-1,-13,-3,0.15,0.48,-0.02,16428.63609676713,0.0
120,1900-01-01 11:10:15.800,21.498224,39.244835,0.0,-446,-68,16006,2,26,-5,0.17,0.56,-0.01,16428.137569426424,0.0
121,1900-01-01 11:10:15.900,21.498224,39.244835,0.0,-494,-52,16422,-3,15,-5,0.2,0.63,0.0,16428.083393993347,0.0
122,1900-01-01 11:10:16.000,21.498224,39.244835,0.0,-374,-42,16574,-2,12,-5,0.23,0.7,-0.01,16428.137569426424,0.0
123,1900-01-01 11:10:16.100,21.498224,39.244835,0.0,-444,30,16582,1,-23,-4,0.27,0.76,-0.03,16579.999276236413,0.0
124,1900-01-01 11:10:16.200,21.498224,39.244835,0.0,-476,-96,15794,1,19,-5,0.31,0.83,-0.03,16579.999276236413,0.0
125,1900-01-01 11:10:16.300,21.498224,39.244835,0.0,-428,140,16668,-2,-10,-6,0.34,0.88,-0.01,16587.966843468188,0.0
126,1900-01-01 11:10:16.400,21.498224,39.244835,0.0,-494,-158,16046,-1,22,-9,0.38,0.9,-0.02,16223.127195457724,0.0
127,1900-01-01 11:10:16.500,21.498224,39.244835,0.0,-278,28,16638,-2,0,-6,0.43,0.95,-0.05,16551.55835563528,0.0
128,1900-01-01 11:10:16.600,21.498224,39.244835,0.0,-524,-68,16216,2,1,-8,0.47,0.98,-0.05,16525.433731070418,0.0
129,1900-01-01 11:10:16.700,21.498224,39.244835,0.0,-188,188,16546,-2,15,-8,0.52,1.01,-0.04,16524.84795694048,0.0
130,1900-01-01 11:10:16.800,21.498224,39.244835,0.0,-502,-40,16518,-2,-16,-7,0.57,1.04,-0.04,16524.84795694048,0.0
131,1900-01-01 11:10:16.900,21.498224,39.244835,0.0,-474,-144,16208,0,15,-9,0.62,1.07,-0.07,16547.949963666193,0.0
132,1900-01-01 11:10:17.100,21.498224,39.244835,0.0,-226,148,16618,-4,8,-10,0.68,1.08,-0.06,16623.507451798494,0.0
133,1900-01-01 11:10:17.200,21.498224,39.244835,0.0,-226,116,16952,-9,-13,-9,0.75,1.08,-0.07,16623.512384571437,0.0
134,1900-01-01 11:10:17.300,21.498224,39.244835,0.0,-426,-42,16900,-3,-13,-10,0.81,1.08,-0.12,16620.907075126797,0.0
135,1900-01-01 11:10:17.400,21.498224,39.244835,0.0,-538,-158,16160,1,-15,-10,0.88,1.11,-0.15,16617.28172716585,0.0
136,1900-01-01 11:10:17.500,21.498224,39.244835,0.0,-308,-166,16612,1,8,-9,0.97,1.17,-0.15,16165.50958058545,0.0
137,1900-01-01 11:10:17.600,21.498224,39.244835,0.0,-388,-276,15826,4,25,-13,1.04,1.13,-0.13,16164.817351272484,0.0
138,1900-01-01 11:10:17.700,21.498224,39.244835,0.0,-358,-188,15918,1,17,-11,1.13,1.11,-0.1,16301.755242917861,0.0
139,1900-01-01 11:10:17.900,21.498224,39.244835,0.0,-278,-166,16298,3,4,-12,1.2,1.11,-0.12,16301.216028259978,0.0
140,1900-01-01 11:10:18.000,21.498224,39.244835,0.0,-124,48,16900,5,36,-13,1.29,1.11,-0.11,16301.216028259978,0.0
141,1900-01-01 11:10:18.100,21.498224,39.244835,0.0,-204,424,16560,-3,21,-12,1.39,1.06,-0.04,16563.16515645485,0.0
142,1900-01-01 11:10:18.200,21.498224,39.244835,0.0,-568,-258,15602,-5,16,-16,1.48,1.01,-0.02,16561.326033865767,0.0
143,1900-01-01 11:10:18.300,21.498224,39.244835,0.0,-352,-284,16768,-2,11,-14,1.57,1.05,-0.1,16161.224706067298,0.0
144,1900-01-01 11:10:18.400,21.498224,39.244835,0.0,-86,120,16118,8,34,-13,1.65,0.99,-0.13,16123.237019903912,0.0
145,1900-01-01 11:10:18.600,21.498224,39.244835,0.0,-588,-212,16156,3,-5,-13,1.76,0.99,-0.08,16122.374763042819,0.0
146,1900-01-01 11:10:18.700,21.498224,39.244835,0.0,-152,-116,16036,1,-2,-16,1.87,1.01,-0.07,16119.134095850186,0.0
147,1900-01-01 11:10:18.800,21.498224,39.244835,0.0,-310,-288,15698,7,7,-14,1.98,0.97,-0.07,16157.131428567387,0.0
148,1900-01-01 11:10:18.900,21.498224,39.244835,0.0,248,48,16500,5,9,-13,2.06,0.93,-0.04,16473.93674869489,0.0
149,1900-01-01 11:10:19.100,21.498224,39.244835,0.0,868,188,17136,5,-43,-15,2.18,0.6,0.03,16494.923825225746,0.0
150,1900-01-01 11:10:19.200,21.498224,39.244839,4.07,1234,88,16472,4,3,-14,2.33,0.11,0.04,16502.761102312546,0.000414
151,1900-01-01 11:10:19.300,21.498224,39.244839,4.07,1342,6,16218,3,-1,-11,2.42,-0.27,0.07,16275.374772950698,0.0
152,1900-01-01 11:10:19.500,21.498226,39.244843,3.82,1006,48,16236,11,-10,-13,2.55,-0.65,0.1,16257.251059142809,0.00047
153,1900-01-01 11:10:19.600,21.498226,39.244843,3.82,1128,272,16004,1,-14,-11,2.62,-0.87,0.16,16249.172163528823,0.0
154,1900-01-01 11:10:19.800,21.498226,39.244843,3.75,516,-276,15984,-1,7,-12,2.72,-1.06,0.16,16244.26840457889,0.0
155,1900-01-01 11:10:19.900,21.498226,39.244846,3.57,266,-152,16684,0,-16,-11,2.83,-1.12,0.15,16546.207903927716,0.00031
156,1900-01-01 11:10:20.000,21.498226,39.244846,3.57,-306,186,16804,4,-41,-9,2.9,-0.96,0.14,16624.208372130084,0.0
157,1900-01-01 11:10:20.200,21.498226,39.244846,3.25,-312,-48,16544,3,16,-12,3.02,-0.74,0.18,16626.88533670693,0.0
158,1900-01-01 11:10:20.300,21.498226,39.244846,3.22,-68,202,16624,1,-19,-11,3.08,-0.62,0.19,16546.82966613242,0.0
159,1900-01-01 11:10:20.400,21.498226,39.24485,3.22,-374,-160,15694,-1,27,-14,3.17,-0.48,0.2,16363.576381708248,0.000414
160,1900-01-01 11:10:20.600,21.498226,39.24485,3.38,-222,0,16362,2,-37,-10,3.3,-0.31,0.17,16363.173897505338,0.0
161,1900-01-01 11:10:20.700,21.498226,39.24485,3.38,-196,-48,15934,5,24,-13,3.37,-0.21,0.16,16225.589788972233,0.0
162,1900-01-01 11:10:20.900,21.498226,39.244854,3.33,-140,54,16772,0,15,-12,3.48,-0.07,0.21,16225.524829724307,0.000414
163,1900-01-01 11:10:21.000,21.498226,39.244854,3.37,-434,-122,16224,0,-10,-14,3.6,0.07,0.2,16227.321282331228,0.0
164,1900-01-01 11:10:21.100,21.498226,39.244854,3.37,-548,-14,15912,0,8,-16,3.7,0.16,0.22,16417.29441777786,0.0
165,1900-01-01 11:10:21.300,21.498226,39.244858,3.44,-328,24,16414,1,9,-13,3.81,0.26,0.18,16415.28324458643,0.000414
166,1900-01-01 11:10:21.400,21.498226,39.244858,3.77,-138,118,16732,7,16,-17,3.95,0.38,0.19,16417.29441777786,0.0
167,1900-01-01 11:10:21.500,21.498226,39.244858,3.77,-156,-18,16412,-2,5,-15,4.04,0.4,0.25,16735.231817934284,0.0
168,1900-01-01 11:10:21.700,21.498226,39.244862,3.81,-338,82,17014,-4,-46,-16,4.18,0.43,0.25,16732.928135864327,0.000414
169,1900-01-01 11:10:21.800,21.498226,39.244862,3.71,-382,4,16970,2,-36,-16,4.32,0.52,0.19,16561.449936524277,0.0
170,1900-01-01 11:10:21.900,21.498226,39.244862,3.71,-10,340,16558,3,7,-17,4.44,0.52,0.2,16561.652453786126,0.0
171,1900-01-01 11:10:22.100,21.498226,39.244865,3.71,-452,-216,15360,3,1,-20,4.58,0.49,0.26,16219.213297814416,0.00031
172,1900-01-01 11:10:22.200,21.498226,39.244865,3.82,346,600,16212,15,37,-38,4.85,0.54,0.41,15763.940243479738,0.0
173,1900-01-01 11:10:22.300,21.498226,39.244865,3.85,-344,474,14996,4,55,-53,5.16,0.52,0.63,15764.83542571885,0.0
174,1900-01-01 11:10:22.400,21.498226,39.244869,3.85,-160,518,15756,-2,11,-62,5.56,0.54,0.74,16220.040690454509,0.000414
175,1900-01-01 11:10:22.600,21.498226,39.244869,3.84,-232,-114,16304,-1,-1,-72,6.1,0.57,0.67,16311.995340852694,0.0
176,1900-01-01 11:10:22.700,21.498226,39.244869,4.2,-190,448,16784,11,8,-87,6.83,0.59,0.68,16762.751564107846,0.0
177,1900-01-01 11:10:22.800,21.498226,39.244873,4.2,34,804,16808,7,-18,-105,7.42,0.53,0.85,16757.40099180061,0.000414
178,1900-01-01 11:10:23.000,21.498226,39.244873,4.2,56,130,16756,-5,-12,-129,8.35,0.45,1.01,16757.460070070287,0.0
179,1900-01-01 11:10:23.100,21.498226,39.244877,4.26,834,214,15486,2,31,-146,9.36,0.26,1.0,15898.676926084132,0.000414
180,1900-01-01 11:10:23.200,21.498226,39.244877,4.37,442,-236,15892,2,-24,-164,10.78,-0.07,0.93,15911.912518613217,0.0
181,1900-01-01 11:10:23.300,21.498228,39.244877,4.37,760,-324,15822,2,20,-179,11.84,-0.32,0.89,15916.367173447588,0.000222
182,1900-01-01 11:10:23.500,21.498228,39.244881,4.44,1190,-282,16174,7,1,-175,13.25,-0.57,0.73,16083.21920512184,0.000414
183,1900-01-01 11:10:23.600,21.498228,39.244881,4.48,840,-452,16240,9,30,-177,15.07,-0.76,0.51,16199.038613448638,0.0
184,1900-01-01 11:10:23.700,21.498228,39.244881,4.48,886,-386,16058,9,19,-165,16.22,-0.92,0.38,16198.252992221105,0.0
185,1900-01-01 11:10:23.900,21.498228,39.244884,4.45,532,-242,17086,6,-64,-155,17.59,-1.11,0.19,16068.881479430982,0.00031
186,1900-01-01 11:10:24.000,21.498228,39.244884,4.41,462,-74,15946,15,-8,-156,19.01,-1.24,0.1,15956.957855430966,0.0
187,1900-01-01 11:10:24.100,21.498228,39.244888,4.41,432,-258,15860,8,30,-147,20.32,-1.21,0.06,15954.777466326505,0.000414
188,1900-01-01 11:10:24.300,21.498228,39.244888,3.95,548,-386,15764,9,2,-147,21.76,-1.26,-0.05,15868.832975364005,0.0
189,1900-01-01 11:10:24.400,21.498228,39.244888,3.75,-22,-306,16352,11,2,-151,22.66,-1.16,-0.06,15863.024301815842,0.0
190,1900-01-01 11:10:24.500,21.498228,39.244892,3.75,-242,-342,15794,5,14,-147,23.67,-0.99,-0.03,16354.883552015894,0.000414
191,1900-01-01 11:10:24.700,21.49823,39.244892,3.65,48,-52,16452,10,-32,-150,24.83,-0.84,-0.04,16352.778112602153,0.000222
192,1900-01-01 11:10:24.800,21.49823,39.244892,3.33,26,132,16522,12,-7,-158,26.35,-0.59,-0.01,16452.61170756789,0.0
193,1900-01-01 11:10:24.900,21.49823,39.244896,3.29,-132,-158,15984,11,8,-156,27.48,-0.41,-0.01,16452.33673372874,0.000414
194,1900-01-01 11:10:25.100,21.49823,39.244896,3.29,-390,102,16786,12,-39,-162,28.55,-0.3,0.03,16522.842128399097,0.0
195,1900-01-01 11:10:25.200,21.49823,39.244896,3.12,-26,152,15916,4,37,-170,30.28,-0.16,0.19,16685.713290117386,0.0
196,1900-01-01 11:10:25.300,21.49823,39.244896,3.1,-514,0,17260,5,2,-165,31.41,-0.03,0.13,16686.025050922104,0.0
197,1900-01-01 11:10:25.400,21.49823,39.2449,3.1,-352,-324,16682,7,-8,-164,32.51,0.03,0.03,16496.982027025428,0.000414
198,1900-01-01 11:10:25.600,21.49823,39.2449,3.05,-180,124,16084,8,23,-165,33.71,0.06,0.05,16497.021306890525,0.0
199,1900-01-01 11:10:25.700,21.49823,39.2449,3.03,130,-386,16496,15,22,-165,35.32,0.11,0.07,16497.227524647893,0.0
200,1900-01-01 11:10:25.800,21.49823,39.2449,2.92,80,-36,16384,11,-6,-167,36.33,0.12,0.08,16384.795146720633,0.0
201,1900-01-01 11:10:25.900,21.49823,39.244904,2.92,-576,-90,17490,14,-47,-162,37.44,0.16,0.09,16384.84104286642,0.000414
202,1900-01-01 11:10:26.100,21.49823,39.244904,2.93,-134,-354,15892,9,38,-161,38.62,0.16,0.1,15942.864359957404,0.0
203,1900-01-01 11:10:26.200,21.49823,39.244904,2.85,-234,-98,15942,5,3,-163,40.28,0.18,0.15,15944.338305492643,0.0
204,1900-01-01 11:10:26.300,21.49823,39.244904,2.83,16,-232,15772,-1,49,-161,41.27,0.18,0.13,15946.317317800998,0.0
205,1900-01-01 11:10:26.400,21.49823,39.244904,2.83,-144,-346,16750,6,-14,-154,42.32,0.19,0.02,16349.669354454847,0.0
206,1900-01-01 11:10:26.600,21.49823,39.244907,2.83,208,-540,16346,9,-43,-149,43.44,0.07,-0.02,16356.239787921917,0.00031
207,1900-01-01 11:10:26.700,21.49823,39.244907,2.89,364,-668,16558,8,-14,-135,44.58,-0.09,-0.07,16471.54783255053,0.0
208,1900-01-01 11:10:26.800,21.49823,39.244907,2.79,1322,-914,16050,7,22,-122,45.77,-0.51,-0.24,16522.52535177356,0.0
209,1900-01-01 11:10:26.900,21.49823,39.244907,2.79,1394,-616,16456,10,-15,-99,46.45,-0.85,-0.4,16530.1927393482,0.0
210,1900-01-01 11:10:27.100,21.49823,39.244907,2.65,1936,-710,16514,2,-35,-75,46.98,-1.26,-0.52,16285.07648124503,0.0
211,1900-01-01 11:10:27.200,21.49823,39.244907,0.0,2100,-754,16092,2,7,-54,47.43,-1.74,-0.68,16586.63763395101,0.0
212,1900-01-01 11:10:27.300,21.49823,39.244907,0.0,1944,-936,16152,-3,7,-29,47.7,-2.14,-0.82,16644.182407075452,0.0
213,1900-01-01 11:10:27.400,21.49823,39.244907,0.0,1872,-844,16550,0,1,-3,47.81,-2.51,-1.02,16646.785755814846,0.0
214,1900-01-01 11:10:27.500,21.49823,39.244907,0.0,-184,304,16524,15,16,4,47.78,-2.53,-1.05,16555.553750932042,0.0
215,1900-01-01 11:10:27.600,21.49823,39.244907,0.0,-688,382,16978,11,-1,-8,47.79,-2.02,-0.7,16552.83093612691,0.0
216,1900-01-01 11:10:27.700,21.49823,39.244907,0.0,358,236,16872,-4,-12,10,47.79,-1.82,-0.59,16527.820424968322,0.0
217,1900-01-01 11:10:27.800,21.49823,39.244907,0.0,-36,530,16416,-3,-16,-7,47.76,-1.73,-0.48,16417.73577567869,0.0
218,1900-01-01 11:10:27.900,21.49823,39.244907,0.0,-228,-248,15920,7,25,0,47.8,-1.53,-0.45,16417.73577567869,0.0
219,1900-01-01 11:10:28.000,21.49823,39.244907,0.0,204,100,16062,4,6,-2,47.79,-1.41,-0.35,16062.351633556027,0.0
220,1900-01-01 11:10:28.100,21.498228,39.244907,0.0,-54,266,16890,-3,-37,-6,47.82,-1.31,-0.22,16062.85366925815,0.000222
221,1900-01-01 11:10:28.200,21.498228,39.244907,0.0,394,-96,15502,-4,14,4,47.83,-1.19,-0.23,16169.127743944631,0.0
222,1900-01-01 11:10:28.400,21.498228,39.244907,0.0,132,146,16168,-1,6,3,47.79,-1.11,-0.26,16672.708358272208,0.0
223,1900-01-01 11:10:28.500,21.498228,39.244907,0.0,34,138,16672,4,-15,3,47.78,-1.03,-0.16,16261.121363546858,0.0
224,1900-01-01 11:10:28.600,21.498228,39.244907,0.0,48,482,17080,-4,-20,6,47.75,-0.96,-0.08,16449.142591636806,0.0
225,1900-01-01 11:10:28.700,21.498228,39.244907,0.0,490,-68,16260,-2,12,5,47.71,-0.92,-0.07,16543.867746086464,0.0
226,1900-01-01 11:10:28.800,21.498228,39.244907,0.0,894,142,16448,0,3,10,47.66,-1.06,-0.11,16471.18429257593,0.0
227,1900-01-01 11:10:28.900,21.498228,39.244907,0.0,862,388,16536,4,-26,12,47.58,-1.25,-0.07,16471.18429257593,0.0
228,1900-01-01 11:10:29.000,21.498228,39.244907,0.0,1100,-98,15990,-5,20,8,47.51,-1.55,0.05,16474.24814672888,0.0
229,1900-01-01 11:10:29.100,21.498228,39.244907,0.0,650,540,16894,-4,-43,7,47.47,-1.66,0.1,16554.523248949212,0.0
230,1900-01-01 11:10:29.200,21.498228,39.244907,0.0,640,348,15854,-5,11,0,47.45,-1.72,0.16,16008.235505514029,0.0
231,1900-01-01 11:10:29.300,21.498228,39.244907,0.0,680,490,17158,-6,-18,-9,47.48,-1.81,0.25,16052.349485355719,0.0
232,1900-01-01 11:10:29.500,21.498228,39.244907,0.0,1160,240,15944,1,30,-20,47.58,-1.89,0.32,15965.711258819634,0.0
233,1900-01-01 11:10:29.600,21.498228,39.244907,0.0,622,480,16032,-1,6,-27,47.71,-1.95,0.41,16055.28162319179,0.0
234,1900-01-01 11:10:29.700,21.498228,39.244907,0.0,712,718,15810,4,14,-42,47.94,-2.03,0.55,16089.939341091376,0.0
235,1900-01-01 11:10:29.800,21.498228,39.244907,0.0,1168,1122,16602,8,-19,-57,48.28,-2.12,0.71,16105.787282837186,0.0
236,1900-01-01 11:10:29.900,21.498228,39.244907,0.0,1328,1044,16508,5,-6,-71,48.71,-2.25,0.91,15940.39209053529,0.0
237,1900-01-01 11:10:30.000,21.498228,39.244907,0.0,1132,1050,15864,4,55,-91,49.2,-2.37,1.12,16586.14035874531,0.0
238,1900-01-01 11:10:30.100,21.498226,39.244907,0.0,1152,1364,15818,9,72,-118,49.76,-2.47,1.36,16201.156748825066,0.000222
239,1900-01-01 11:10:30.200,21.498226,39.244907,0.0,988,1256,17222,4,-28,-147,50.64,-2.67,1.66,16215.810679703929,0.0
240,1900-01-01 11:10:30.300,21.498226,39.244907,0.0,1300,888,16126,11,24,-171,51.6,-2.86,1.87,16235.71285777129,0.0
241,1900-01-01 11:10:30.400,21.498226,39.244907,0.0,1520,1444,16444,25,-12,-192,52.7,-3.1,2.13,16261.716145597919,0.0
242,1900-01-01 11:10:30.500,21.498226,39.244907,0.0,1710,1590,15838,20,32,-220,53.95,-3.31,2.43,16286.255677717945,0.0
243,1900-01-01 11:10:30.600,21.498226,39.244907,0.0,1880,1718,15974,16,34,-249,55.36,-3.49,2.77,16286.255677717945,0.0
244,1900-01-01 11:10:30.700,21.498226,39.244907,0.0,1712,1698,16118,7,19,-272,56.79,-3.69,2.99,16286.255677717945,0.0
245,1900-01-01 11:10:30.800,21.498226,39.244907,0.0,1348,1570,16310,21,-15,-288,58.49,-3.91,3.15,16290.76523678369,0.0
246,1900-01-01 11:10:30.900,21.498226,39.244907,0.0,1648,1530,16236,16,11,-318,60.5,-4.14,3.4,16371.812850139719,0.0
247,1900-01-01 11:10:31.000,21.498226,39.244907,0.0,848,2410,15468,30,-39,-335,62.48,-4.33,3.64,16366.197970206764,0.0
248,1900-01-01 11:10:31.100,21.498226,39.244907,0.0,1278,1616,17996,21,-71,-348,64.55,-4.41,3.87,16350.781755010981,0.0
249,1900-01-01 11:10:31.200,21.498226,39.244907,0.0,860,2148,15890,27,52,-361,66.69,-4.43,4.06,16006.389099356544,0.0
250,1900-01-01 11:10:31.300,21.498226,39.244907,0.0,972,1672,16950,15,-67,-374,69.15,-4.52,4.28,16585.148537170237,0.0
251,1900-01-01 11:10:31.400,21.498226,39.244907,0.0,954,1674,15390,10,77,-371,71.42,-4.53,4.29,16122.419297363533,0.0
252,1900-01-01 11:10:31.500,21.498226,39.244907,0.0,1164,1322,16472,-7,-60,-359,73.62,-4.64,4.21,16474.86728322872,0.0
253,1900-01-01 11:10:31.600,21.498226,39.244907,0.0,1060,1382,16006,17,38,-356,75.8,-4.69,4.05,16480.293322632337,0.0
254,1900-01-01 11:10:31.700,21.498226,39.244907,0.0,946,770,16388,13,-43,-348,77.94,-4.76,4.01,16527.095449594282,0.0
255,1900-01-01 11:10:31.800,21.498226,39.244904,0.0,1086,1694,16440,17,6,-338,80.24,-4.78,3.99,16439.472619278273,0.00031
256,1900-01-01 11:10:31.900,21.498226,39.244904,0.0,656,854,16494,16,12,-320,82.24,-4.75,3.92,16487.173802686742,0.0
257,1900-01-01 11:10:32.000,21.498226,39.244904,0.0,980,396,16072,17,-27,-295,85.08,-4.74,3.74,16490.96746707118,0.0
258,1900-01-01 11:10:32.100,21.498226,39.244904,0.0,1062,734,16874,-1,-26,-273,86.81,-4.7,3.63,16483.537241745173,0.0
259,1900-01-01 11:10:32.200,21.498226,39.244904,0.0,1540,742,16438,16,-24,-256,87.62,-4.7,3.52,16231.303213235837,0.0
260,1900-01-01 11:10:32.300,21.498226,39.244904,0.0,958,654,16188,-1,4,-236,89.29,-4.71,3.33,16234.723403864939,0.0
261,1900-01-01 11:10:32.400,21.498226,39.244904,0.0,988,70,16036,16,-3,-199,91.14,-4.64,3.0,16163.48514399045,0.0
262,1900-01-01 11:10:32.500,21.498226,39.244904,0.0,936,958,15744,40,33,-199,92.36,-4.56,2.98,16173.551990827495,0.0
263,1900-01-01 11:10:32.600,21.498226,39.244904,0.0,638,1934,16118,33,-23,-206,93.59,-4.47,3.24,16243.154742844754,0.0
264,1900-01-01 11:10:32.700,21.498226,39.244904,0.0,524,2582,16272,12,-19,-212,94.96,-4.38,3.65,16365.522173154146,0.0
265,1900-01-01 11:10:32.800,21.498226,39.244904,0.0,646,1906,16342,6,-4,-227,96.16,-4.27,3.86,16378.636206961799,0.0
266,1900-01-01 11:10:32.900,21.498226,39.244904,0.0,674,2514,16238,-6,4,-253,97.62,-4.21,4.08,16412.741513836132,0.0
267,1900-01-01 11:10:33.000,21.498226,39.244904,0.0,924,2042,16076,0,-1,-262,99.18,-4.18,4.18,16465.847563973133,0.0
268,1900-01-01 11:10:33.100,21.498226,39.244904,0.0,656,1548,16598,-7,-55,-266,100.8,-4.1,4.23,16324.80578751245,0.0
269,1900-01-01 11:10:33.300,21.49823,39.244907,7.84,246,1378,16988,2,-6,-267,102.43,-3.95,4.21,16144.52836102684,0.000542
270,1900-01-01 11:10:33.400,21.498232,39.244907,7.84,272,1034,15838,9,-2,-269,104.21,-3.94,4.26,16639.468020342476,0.000222
271,1900-01-01 11:10:33.500,21.498236,39.244907,9.63,556,736,15748,-4,2,-247,106.29,-3.95,4.17,16316.094263027533,0.000445
272,1900-01-01 11:10:33.600,21.498238,39.244907,10.2,746,498,16648,-6,10,-192,108.4,-3.88,3.67,16315.509798961233,0.000222
273,1900-01-01 11:10:33.700,21.498241,39.244907,10.2,732,330,16290,3,17,-169,109.61,-3.91,3.32,16314.67498910107,0.000334
274,1900-01-01 11:10:33.900,21.498245,39.244911,10.27,912,544,17168,4,20,-142,110.83,-4.09,3.09,16320.12218091519,0.000608
275,1900-01-01 11:10:34.000,21.498249,39.244911,10.4,1268,388,16254,5,37,-128,112.13,-4.62,2.81,16328.700989362258,0.000445
276,1900-01-01 11:10:34.100,21.498251,39.244911,10.43,1378,-844,15830,41,16,-106,113.0,-4.77,2.53,16523.580846777735,0.000222
277,1900-01-01 11:10:34.300,21.498257,39.244911,10.43,1074,168,16956,16,-8,-62,113.47,-4.69,2.35,16331.53550649785,0.000667
278,1900-01-01 11:10:34.400,21.49826,39.244911,10.69,1370,-806,16474,-6,3,-24,113.8,-4.77,2.03,16285.754511228517,0.000334
279,1900-01-01 11:10:34.500,21.498262,39.244915,10.96,1632,-820,15958,-28,-39,9,113.88,-4.96,1.46,16528.635394369372,0.00047
280,1900-01-01 11:10:34.600,21.498266,39.244915,11.51,1018,-748,16208,-30,-89,47,113.61,-4.58,0.68,16379.202056266355,0.000445
281,1900-01-01 11:10:34.700,21.49827,39.244915,11.51,320,-1600,17494,-16,49,56,113.33,-4.2,0.1,16331.519463907822,0.000445
282,1900-01-01 11:10:34.900,21.498276,39.244915,11.67,1208,-1692,16314,-14,41,81,112.87,-4.15,-0.49,16340.789209827046,0.000667
283,1900-01-01 11:10:35.000,21.49828,39.244919,12.04,1654,-1828,14250,-7,44,117,112.15,-4.22,-0.99,16499.208950734577,0.000608
284,1900-01-01 11:10:35.100,21.498283,39.244919,12.88,2570,-2002,15896,-19,145,153,110.88,-4.29,-1.66,16519.392119566626,0.000334
285,1900-01-01 11:10:35.200,21.498287,39.244919,13.24,2294,-2696,16670,-27,16,189,109.85,-4.6,-2.24,16207.620059712654,0.000445
286,1900-01-01 11:10:35.400,21.498295,39.244923,13.24,1642,-2890,17520,-19,-45,209,108.59,-4.66,-3.0,16239.799259843085,0.000981
287,1900-01-01 11:10:35.500,21.498299,39.244923,13.74,996,-3636,15590,-1,-16,238,107.15,-4.46,-3.61,16744.13031482973,0.000445
288,1900-01-01 11:10:35.600,21.498302,39.244923,13.88,1294,-2998,14166,-14,72,254,105.39,-4.36,-4.15,16723.740012329778,0.000334
289,1900-01-01 11:10:35.700,21.498306,39.244923,14.29,924,-2724,16442,37,19,253,102.98,-4.46,-4.71,16693.401570680555,0.000445
290,1900-01-01 11:10:35.800,21.49831,39.244923,14.4,764,-2094,17040,-13,-58,258,101.45,-4.57,-4.8,16636.46536978333,0.000445
291,1900-01-01 11:10:36.000,21.498316,39.244926,14.4,954,-2350,16920,-26,-6,259,99.57,-4.59,-5.01,16935.3119841354,0.000736
292,1900-01-01 11:10:36.100,21.498322,39.244926,14.84,962,-2248,15778,-45,23,254,97.75,-4.8,-5.44,16933.176665941923,0.000667
293,1900-01-01 11:10:36.200,21.498325,39.244926,15.41,530,-2672,16746,-30,24,250,95.34,-5.0,-6.02,16819.030412006512,0.000334
294,1900-01-01 11:10:36.300,21.498329,39.244926,15.82,884,-3126,16578,-31,-84,249,93.71,-5.08,-6.38,16632.244947691215,0.000445
295,1900-01-01 11:10:36.500,21.498337,39.244926,15.82,1254,-2806,14886,-9,37,236,91.93,-5.05,-6.59,16645.57082229384,0.00089
296,1900-01-01 11:10:36.600,21.498343,39.244926,16.1,1436,-1586,16388,-3,-37,227,90.36,-4.97,-6.55,16240.033743807307,0.000667
297,1900-01-01 11:10:36.700,21.498346,39.244926,16.9,1170,-874,16120,-5,-15,201,88.23,-4.87,-6.32,16007.788479362163,0.000334
298,1900-01-01 11:10:36.800,21.49835,39.244926,17.05,728,-1504,15852,-10,-19,173,87.07,-4.92,-6.16,16206.369118343566,0.000445
299,1900-01-01 11:10:37.000,21.49836,39.244923,17.05,664,-1902,15886,-5,-34,150,85.96,-4.85,-5.97,15926.671215291663,0.001154
300,1900-01-01 11:10:37.100,21.498365,39.244923,17.43,226,-568,16976,20,-56,123,84.87,-4.8,-5.61,15915.997109826327,0.000556
301,1900-01-01 11:10:37.200,21.498369,39.244923,18.1,1574,-4,15350,-13,55,97,83.76,-4.76,-4.86,15931.874717056999,0.000445
302,1900-01-01 11:10:37.300,21.498375,39.244923,18.1,806,-1226,15794,-11,-15,91,83.11,-4.75,-4.63,15924.710609615486,0.000667
303,1900-01-01 11:10:37.500,21.498384,39.244919,18.51,1178,-900,17090,8,30,81,82.36,-4.6,-4.52,15924.710609615486,0.001083
304,1900-01-01 11:10:37.600,21.49839,39.244919,19.47,1352,-818,15860,5,-11,74,81.63,-4.65,-4.13,16741.541386622677,0.000667
305,1900-01-01 11:10:37.800,21.4984,39.244915,19.47,804,-596,16680,12,-37,59,81.15,-4.54,-3.8,16800.9766382791,0.001186
306,1900-01-01 11:10:37.900,21.498405,39.244915,19.94,1352,-400,16740,40,19,48,80.71,-4.44,-3.39,16795.1659711954,0.000556
307,1900-01-01 11:10:38.000,21.498413,39.244915,20.9,1300,930,17872,47,-26,25,80.32,-4.37,-2.44,16780.875900858096,0.00089
308,1900-01-01 11:10:38.100,21.498419,39.244915,21.3,540,1078,16980,-23,-34,10,80.17,-4.3,-1.74,16783.07409266848,0.000667
309,1900-01-01 11:10:38.300,21.498428,39.244911,21.3,1170,-36,15912,-37,41,-2,80.1,-4.16,-1.52,16994.04107327036,0.001083
310,1900-01-01 11:10:38.400,21.498436,39.244911,22.26,634,274,16624,8,-17,-2,80.15,-4.02,-1.48,16637.513516147777,0.00089
311,1900-01-01 11:10:38.500,21.498442,39.244907,22.26,272,218,17518,-37,29,8,80.1,-3.84,-1.23,15926.78260038731,0.000785
312,1900-01-01 11:10:38.700,21.498453,39.244907,22.62,1100,128,15300,-29,24,0,80.04,-3.69,-1.23,16636.577652870797,0.001223
313,1900-01-01 11:10:38.800,21.498461,39.244904,23.93,674,-38,15166,18,30,2,80.04,-3.45,-1.3,15306.010845416255,0.000942
314,1900-01-01 11:10:39.000,21.498472,39.244904,23.93,428,-28,18040,-11,-110,11,79.96,-3.11,-1.06,15306.010845416255,0.001223
315,1900-01-01 11:10:39.100,21.498478,39.2449,24.16,-544,-276,14954,2,35,1,79.89,-2.44,-1.0,16616.204861519975,0.000785
316,1900-01-01 11:10:39.200,21.498484,39.2449,24.19,268,738,17240,2,-38,4,79.86,-2.06,-0.8,16617.14367753977,0.000667
317,1900-01-01 11:10:39.400,21.498497,39.244896,24.19,-322,-776,16614,5,-27,8,79.81,-1.64,-0.75,16619.88435579502,0.001504
318,1900-01-01 11:10:39.500,21.498503,39.244896,24.21,-442,-14,14542,1,18,3,79.78,-1.24,-0.56,16618.347811981792,0.000667
319,1900-01-01 11:10:39.600,21.498508,39.244892,24.21,-520,202,17012,16,-38,8,79.72,-0.89,-0.43,16259.264189993346,0.000693
320,1900-01-01 11:10:39.800,21.498522,39.244892,24.51,368,580,16190,19,41,6,79.66,-0.76,-0.27,16261.57151077349,0.001557
321,1900-01-01 11:10:40.000,21.498533,39.244888,24.51,-910,356,16252,0,-5,7,79.61,-0.69,-0.08,16264.21347621827,0.001291
322,1900-01-01 11:10:40.100,21.498541,39.244884,24.4,-744,-82,16978,-29,-2,0,79.58,-0.73,-0.08,16256.450904179546,0.000981
323,1900-01-01 11:10:40.200,21.498547,39.244884,24.4,-134,472,16054,-35,41,-3,79.57,-0.55,-0.06,16632.35028491163,0.000667
324,1900-01-01 11:10:40.400,21.498558,39.244881,24.46,242,296,16628,23,9,-1,79.56,-0.45,-0.18,16631.17422192432,0.001262
325,1900-01-01 11:10:40.500,21.498566,39.244881,24.46,-2,460,17952,-31,-22,0,79.57,-0.08,0.06,16425.157046433378,0.00089
326,1900-01-01 11:10:40.700,21.498577,39.244877,24.46,-208,-288,15200,-11,52,-7,79.58,0.13,-0.08,16425.157046433378,0.001291
327,1900-01-01 11:10:40.800,21.498583,39.244877,24.3,-4,322,16422,-2,10,-9,79.66,0.21,-0.08,15944.608744023793,0.000667
328,1900-01-01 11:10:41.000,21.498596,39.244873,24.32,-348,668,15940,-21,38,-4,79.68,0.23,-0.05,15943.171829971601,0.001504
329,1900-01-01 11:10:41.100,21.498602,39.244873,24.3,-318,-2,14764,-23,16,-9,79.76,0.34,-0.15,15943.171829971601,0.000667
330,1900-01-01 11:10:41.300,21.498615,39.244869,24.09,-812,-216,16302,3,-14,-5,79.8,0.48,-0.27,15943.798418193828,0.001504
331,1900-01-01 11:10:41.400,21.498621,39.244865,24.26,256,-304,14768,15,65,-4,79.84,0.61,-0.24,14829.41010290025,0.000785
332,1900-01-01 11:10:41.600,21.498632,39.244865,24.26,-822,462,16920,15,-91,0,79.86,0.72,-0.17,16311.195051252376,0.001223
333,1900-01-01 11:10:41.700,21.49864,39.244862,24.17,-294,626,14826,-11,52,-8,79.89,0.68,-0.07,16605.26241888396,0.000942
334,1900-01-01 11:10:41.900,21.498652,39.244862,24.17,12,1066,17080,-5,20,-18,80.0,0.74,0.07,16937.441837538514,0.001334
335,1900-01-01 11:10:42.000,21.498657,39.244858,24.01,-220,818,16592,-9,-16,-28,80.21,0.82,0.23,16609.786271954254,0.000693
336,1900-01-01 11:10:42.200,21.498671,39.244858,24.1,-358,710,18228,-2,-75,-23,80.52,0.99,0.42,16608.64124484601,0.001557
337,1900-01-01 11:10:42.300,21.498676,39.244854,24.1,-950,-318,15538,-4,54,-21,80.66,0.91,0.51,15981.514821818362,0.000693
338,1900-01-01 11:10:42.500,21.498688,39.244854,24.05,458,-174,15980,-14,92,-29,80.86,0.81,0.57,15984.010135131923,0.001334
339,1900-01-01 11:10:42.600,21.498693,39.24485,23.63,4,-4,15742,16,-39,-26,81.13,0.67,0.49,15749.500817486249,0.000693
340,1900-01-01 11:10:42.700,21.498701,39.24485,23.85,-782,868,16944,3,-65,-27,81.28,0.75,0.65,15982.668112677558,0.00089
341,1900-01-01 11:10:42.900,21.498713,39.24485,23.85,-486,858,15040,1,-4,-20,81.46,0.83,0.8,16269.553527985949,0.001334
342,1900-01-01 11:10:43.000,21.498718,39.244846,23.89,-292,-82,16266,-34,-35,-24,81.66,0.91,0.78,16298.092158286503,0.000693
343,1900-01-01 11:10:43.100,21.498726,39.244846,23.84,-340,-806,17472,28,-35,-17,81.88,1.13,0.47,16271.169718247056,0.00089
344,1900-01-01 11:10:43.200,21.498732,39.244846,23.64,996,288,16292,75,-22,-9,81.95,1.11,0.6,16293.4338922156,0.000667
345,1900-01-01 11:10:43.400,21.498743,39.244843,23.64,26,1656,14846,-69,29,-10,82.03,1.11,1.11,17141.79232169145,0.001262
346,1900-01-01 11:10:43.500,21.498749,39.244843,23.58,-200,-524,17138,-15,7,-22,82.14,1.33,0.82,16295.772703373104,0.000667
347,1900-01-01 11:10:43.600,21.498756,39.244843,23.68,-1704,-300,18968,93,-118,-20,82.37,1.52,0.65,16557.313429418435,0.000778
348,1900-01-01 11:10:43.700,21.498762,39.244843,23.68,-572,2414,15016,34,41,-12,82.46,1.49,1.23,16557.816039562706,0.000667
349,1900-01-01 11:10:43.900,21.498774,39.244839,23.69,470,518,16548,32,90,-31,82.56,1.17,1.7,16311.415634456747,0.001397
350,1900-01-01 11:10:44.000,21.498781,39.244839,23.68,-238,1506,16240,52,55,-65,82.97,0.92,2.23,16215.838430374175,0.000778
351,1900-01-01 11:10:44.100,21.498787,39.244839,23.62,-22,2354,15762,56,-25,-67,83.54,1.02,3.07,16214.106697564315,0.000667
352,1900-01-01 11:10:44.300,21.498798,39.244835,23.62,-534,766,16144,59,-41,-65,84.0,1.21,3.52,16222.683625097297,0.001291
353,1900-01-01 11:10:44.400,21.498806,39.244835,23.79,22,2558,15798,19,-29,-84,84.61,1.4,4.18,15879.879470575335,0.00089
354,1900-01-01 11:10:44.500,21.498812,39.244835,23.73,-712,1578,16714,-4,4,-91,85.46,1.72,4.68,16229.725074689342,0.000667
355,1900-01-01 11:10:44.700,21.498823,39.244831,23.81,-322,986,15010,26,35,-111,86.08,1.55,4.87,16491.156781742146,0.001291
356,1900-01-01 11:10:44.800,21.498829,39.244831,23.81,-558,3596,18148,63,-49,-122,86.87,1.55,5.57,16683.774752735066,0.000667
357,1900-01-01 11:10:44.900,21.498837,39.244831,23.66,-560,3602,16282,11,20,-149,87.85,1.47,6.53,16685.002007791307,0.00089
358,1900-01-01 11:10:45.000,21.498842,39.244831,23.59,-1330,4286,15194,-13,89,-195,89.2,1.27,7.42,16845.91000807021,0.000556
359,1900-01-01 11:10:45.100,21.498848,39.244831,23.62,-114,4586,17072,45,22,-254,91.1,0.83,8.38,15880.888891998458,0.000667
360,1900-01-01 11:10:45.300,21.498859,39.244831,23.62,-442,5166,14656,23,41,-280,92.9,0.53,9.5,16015.419944540949,0.001223
361,1900-01-01 11:10:45.400,21.498867,39.244827,23.39,-1298,7562,14796,-20,-76,-327,95.35,0.53,10.72,17883.66696178387,0.000981
362,1900-01-01 11:10:45.500,21.498873,39.244827,23.32,-2106,4894,18040,-5,-51,-369,98.89,0.93,11.75,16531.891724784553,0.000667
363,1900-01-01 11:10:45.600,21.498878,39.244827,23.31,-1394,5828,17406,50,75,-386,101.18,0.74,12.2,16759.736752109206,0.000556
364,1900-01-01 11:10:45.800,21.498892,39.244827,23.31,-1210,6446,15416,31,95,-411,104.31,-0.04,13.39,18613.516271784865,0.001557
365,1900-01-01 11:10:45.900,21.498898,39.244827,23.48,-348,7248,14852,44,-15,-430,107.35,-0.75,14.54,17889.559972229614,0.000667
366,1900-01-01 11:10:46.000,21.498903,39.244827,24.08,-2548,7892,18032,-53,-119,-490,111.79,-0.72,15.83,17801.26883118167,0.000556
367,1900-01-01 11:10:46.200,21.498917,39.244827,24.08,-2594,7706,16296,-55,8,-527,115.27,-0.68,16.2,17992.612484016878,0.001557
368,1900-01-01 11:10:46.300,21.498922,39.244827,24.21,-2584,5524,16058,101,88,-556,119.49,-1.3,16.59,17992.612484016878,0.000556
369,1900-01-01 11:10:46.400,21.49893,39.244831,24.22,-738,8632,15110,14,30,-551,124.95,-2.69,18.15,17775.492567014844,0.000981
370,1900-01-01 11:10:46.500,21.498936,39.244831,24.26,-604,7544,15734,-16,-54,-556,128.73,-3.41,18.82,17115.049167326397,0.000667
371,1900-01-01 11:10:46.700,21.498949,39.244831,24.26,-1094,6646,17222,1,-38,-571,132.58,-3.57,18.78,17431.13754176703,0.001446
372,1900-01-01 11:10:46.800,21.498955,39.244835,24.54,-1192,5276,15610,71,-33,-575,137.49,-4.17,18.81,17163.687016489203,0.000785
373,1900-01-01 11:10:46.900,21.49896,39.244835,24.04,-468,7466,16666,56,-50,-557,142.46,-4.58,19.47,17653.240155846746,0.000556
374,1900-01-01 11:10:47.100,21.498972,39.244839,24.04,-964,6790,15006,16,31,-540,146.47,-5.08,19.81,17017.30836530854,0.001397
375,1900-01-01 11:10:47.200,21.498978,39.244843,23.45,-152,5206,16326,-24,20,-499,150.47,-5.6,19.43,17136.622070874993,0.000785
376,1900-01-01 11:10:47.300,21.498983,39.244843,22.57,8,3520,16172,-20,35,-429,154.46,-6.25,18.25,16550.65098417582,0.000556
377,1900-01-01 11:10:47.500,21.498993,39.24485,22.57,760,1934,16536,-23,15,-349,156.86,-6.67,17.06,16452.450516564393,0.001327
378,1900-01-01 11:10:47.600,21.498997,39.244858,22.09,740,288,15366,-25,13,-255,159.17,-6.98,15.33,16196.09545538677,0.00094
379,1900-01-01 11:10:47.700,21.499001,39.244862,21.97,636,242,17160,-1,-65,-176,160.92,-6.94,13.6,16268.314233503113,0.000608
380,1900-01-01 11:10:47.900,21.49901,39.244869,21.97,858,482,16042,3,47,-129,161.82,-6.81,12.55,16269.792008504595,0.001235
381,1900-01-01 11:10:48.000,21.499014,39.244873,21.67,1058,268,16248,-8,-27,-89,162.63,-6.69,11.34,16460.561472805235,0.000608
382,1900-01-01 11:10:48.100,21.499016,39.244881,20.66,798,-92,16810,-10,-54,-68,163.24,-6.55,10.2,16285.024531759233,0.000857
383,1900-01-01 11:10:48.300,21.499022,39.244888,20.66,986,484,16436,8,-66,-56,163.65,-6.43,9.39,16472.197303335095,0.000985
384,1900-01-01 11:10:48.400,21.499023,39.244896,20.05,1610,638,15344,-6,68,-57,164.08,-6.25,8.64,16478.294086464168,0.000835
385,1900-01-01 11:10:48.500,21.499023,39.244907,21.0,1418,136,17006,-2,-77,-38,164.46,-6.0,7.84,16478.294086464168,0.001138
386,1900-01-01 11:10:48.700,21.499027,39.244919,21.0,1172,-606,15544,-10,41,-22,164.63,-5.82,7.05,15705.886157743536,0.001319
387,1900-01-01 11:10:48.800,21.499029,39.244926,21.61,982,-1186,16994,-3,-50,11,164.64,-5.6,6.09,16664.314087294442,0.000758
388,1900-01-01 11:10:48.900,21.499031,39.244934,22.77,1502,-1168,15630,8,47,27,164.42,-5.4,5.03,16654.92960057172,0.000857
389,1900-01-01 11:10:49.100,21.499035,39.244946,22.77,1030,-342,16612,-1,-69,33,164.17,-5.16,4.41,16719.676312656295,0.001319
390,1900-01-01 11:10:49.200,21.499039,39.244953,23.87,662,42,17472,23,133,28,163.83,-4.84,3.71,16647.414453902446,0.00085
391,1900-01-01 11:10:49.400,21.499044,39.244965,23.87,1004,782,16686,11,200,27,163.6,-4.73,3.28,16645.826023360933,0.00136
392,1900-01-01 11:10:49.500,21.499046,39.244972,24.67,2574,-1102,16178,46,36,25,163.25,-5.11,2.49,16739.611703979277,0.000758
393,1900-01-01 11:10:49.600,21.499048,39.24498,24.92,-1682,-2246,11624,-17,75,31,163.14,-5.37,2.4,16414.676481734266,0.000857
394,1900-01-01 11:10:49.800,21.499054,39.244991,24.92,760,-1220,17546,6,-242,21,162.98,-5.14,2.12,16414.676481734266,0.001319
395,1900-01-01 11:10:49.900,21.499056,39.245003,27.0,330,142,16360,-10,29,14,162.85,-4.95,1.92,16814.585335356922,0.001261
396,1900-01-01 11:10:50.100,21.499062,39.245018,27.0,1500,-338,17426,19,84,15,162.7,-4.86,1.62,16994.2036000514,0.001689
397,1900-01-01 11:10:50.200,21.499063,39.245026,28.09,1602,-170,16794,5,-6,17,162.58,-4.96,1.36,16861.712131334705,0.000835
398,1900-01-01 11:10:50.400,21.499067,39.245041,28.09,1466,178,16930,-40,16,11,162.46,-4.98,1.2,16999.680702883805,0.001614
399,1900-01-01 11:10:50.500,21.499069,39.245049,28.36,1704,-1186,15518,-19,20,8,162.36,-4.85,0.75,16858.721541089646,0.000857
400,1900-01-01 11:10:50.600,21.499071,39.245056,28.85,292,-626,18470,-7,-90,13,162.27,-4.5,0.38,16745.9805326532,0.000758
401,1900-01-01 11:10:50.800,21.499077,39.245071,28.85,-94,-154,16734,8,65,10,162.18,-4.27,0.33,16745.547348474458,0.001689
402,1900-01-01 11:10:50.900,21.499079,39.245079,29.59,266,-562,16228,1,71,-7,162.19,-4.03,0.5,16737.799377457002,0.000857
403,1900-01-01 11:10:51.100,21.499083,39.245094,29.59,-344,-344,17790,10,-46,-12,162.29,-3.51,0.53,16738.61774460484,0.001614
404,1900-01-01 11:10:51.200,21.499086,39.245106,29.88,-278,424,16462,6,-16,-7,162.39,-2.65,0.6,16788.603991994092,0.001286
405,1900-01-01 11:10:51.400,21.49909,39.245121,29.88,-472,-278,16784,12,-14,-11,162.46,-2.41,0.58,17279.09303175372,0.001614
406,1900-01-01 11:10:51.500,21.499092,39.245129,30.42,-236,356,17272,11,-43,-15,162.62,-2.14,0.76,17282.405388139698,0.000857
407,1900-01-01 11:10:51.700,21.499098,39.245144,30.42,-876,446,17378,14,-84,-13,162.73,-1.86,0.83,17386.816729925005,0.001689
408,1900-01-01 11:10:51.800,21.4991,39.245152,30.24,-424,964,17632,3,-50,-15,162.9,-1.44,0.89,17631.02504110297,0.000857
409,1900-01-01 11:10:52.000,21.499105,39.245167,30.24,-274,-42,17932,-14,-82,-15,163.03,-1.25,0.89,17631.02504110297,0.001648
410,1900-01-01 11:10:52.100,21.499107,39.245178,30.17,-678,372,17622,-12,-87,-11,163.19,-1.0,0.8,17637.147274998868,0.00116
411,1900-01-01 11:10:52.300,21.499113,39.245193,30.17,-16,-140,15868,0,36,-6,163.25,-0.84,0.64,17624.68609649545,0.001689
412,1900-01-01 11:10:52.400,21.499115,39.245201,29.68,-1288,-676,17650,-2,-7,1,163.28,-0.42,0.37,15912.984383829451,0.000857
413,1900-01-01 11:10:52.600,21.499119,39.245216,29.68,56,-166,14296,3,94,-2,163.27,-0.35,0.29,15913.234366400817,0.001614
414,1900-01-01 11:10:52.700,21.499121,39.245224,29.32,-516,114,15904,2,78,2,163.25,0.02,0.2,16074.81881701937,0.000857
415,1900-01-01 11:10:52.900,21.499126,39.245239,29.32,-620,-320,16934,5,-74,3,163.25,0.18,0.14,15916.946063865393,0.001648
416,1900-01-01 11:10:53.000,21.499128,39.245247,29.14,-630,-160,16062,-10,43,4,163.22,0.35,0.06,16075.146780045276,0.000857
417,1900-01-01 11:10:53.200,21.499132,39.245262,29.14,-908,-528,15834,8,24,6,163.17,0.44,-0.06,16080.430466874946,0.001614
418,1900-01-01 11:10:53.300,21.499134,39.24527,29.04,-700,46,17756,-7,-1,7,163.11,0.59,-0.1,16085.723110883142,0.000857
419,1900-01-01 11:10:53.500,21.499138,39.245285,29.04,-916,-412,16040,-4,116,2,163.05,0.66,-0.19,16509.113846600005,0.001614
420,1900-01-01 11:10:53.600,21.49914,39.245293,28.72,-770,-532,16486,8,-50,10,162.99,0.68,-0.33,16504.07440603683,0.000857
421,1900-01-01 11:10:53.800,21.499144,39.245308,28.72,-430,-326,16890,-13,4,5,162.93,0.65,-0.33,16494.828644153902,0.001614
422,1900-01-01 11:10:53.900,21.499146,39.245316,27.8,-148,86,15566,-10,102,3,162.87,0.61,-0.38,16892.565583711672,0.000857
423,1900-01-01 11:10:54.100,21.499149,39.245331,27.8,-168,-236,17030,-8,61,4,162.83,0.65,-0.44,16891.086051524337,0.001587
424,1900-01-01 11:10:54.200,21.499151,39.245338,27.5,-176,-72,17174,-1,32,3,162.77,0.63,-0.53,17030.9808290656,0.000758
425,1900-01-01 11:10:54.400,21.499155,39.24535,27.5,-16,-92,16456,-1,-92,7,162.74,0.52,-0.61,17175.0527218987,0.001319
426,1900-01-01 11:10:54.500,21.499157,39.245358,27.49,-298,152,17204,5,-42,4,162.71,0.57,-0.62,17206.731357233424,0.000857
427,1900-01-01 11:10:54.600,21.499159,39.245365,27.45,-852,68,17780,4,-105,10,162.66,0.56,-0.6,17206.715084524414,0.000758
428,1900-01-01 11:10:54.800,21.499163,39.24538,27.45,-544,-226,17782,2,38,-7,162.66,0.67,-0.52,17206.715084524414,0.001614
429,1900-01-01 11:10:54.900,21.499165,39.245388,27.35,480,462,16310,-4,42,-15,162.74,0.53,-0.27,17142.475083837806,0.000857
430,1900-01-01 11:10:55.100,21.499168,39.245403,27.35,108,-132,17142,-2,21,-12,162.85,0.47,-0.21,16514.172458830628,0.001587
431,1900-01-01 11:10:55.200,21.49917,39.245411,26.92,224,296,16510,6,30,-14,163.0,0.28,-0.1,16319.746199006895,0.000857
432,1900-01-01 11:10:55.400,21.499174,39.245426,26.92,536,622,15638,16,-4,-9,163.08,0.12,-0.03,16249.379065059686,0.001614
433,1900-01-01 11:10:55.500,21.499176,39.24543,26.92,780,-162,16240,7,38,-11,163.2,-0.04,0.09,16251.538757914586,0.00047
434,1900-01-01 11:10:55.700,21.49918,39.245445,27.05,556,-260,15224,4,11,-8,163.25,-0.15,0.11,15647.185178171823,0.001614
435,1900-01-01 11:10:55.800,21.499182,39.245453,27.02,394,484,18436,20,-108,3,163.31,-0.28,0.12,16249.5169158963,0.000857
436,1900-01-01 11:10:56.000,21.499186,39.245468,27.02,462,-8,14522,-5,55,-3,163.32,-0.51,0.13,17149.0174645663,0.001614
437,1900-01-01 11:10:56.100,21.499187,39.245476,26.94,638,334,17306,-23,-23,4,163.31,-0.73,0.06,17146.227223503134,0.000835
438,1900-01-01 11:10:56.200,21.499189,39.245483,26.99,598,-104,17140,-24,-118,3,163.28,-0.98,-0.15,16530.370352777943,0.000758
439,1900-01-01 11:10:56.400,21.499193,39.245495,26.99,-154,-102,16522,-26,-28,-1,163.27,-1.1,-0.31,17150.74400718523,0.001319
440,1900-01-01 11:10:56.500,21.499195,39.245502,27.13,516,-662,15226,-10,33,3,163.24,-1.24,-0.52,16533.145617213926,0.000758
441,1900-01-01 11:10:56.700,21.499199,39.245518,27.13,914,-538,17216,5,-30,3,163.2,-1.38,-0.6,15803.628191019934,0.001714
442,1900-01-01 11:10:56.800,21.499201,39.245525,27.39,1724,190,15768,1,7,8,163.12,-1.74,-0.49,15803.628191019934,0.000758
443,1900-01-01 11:10:57.000,21.499205,39.245541,27.65,936,-946,15492,16,65,5,163.06,-1.88,-0.48,16295.576823175055,0.001714
444,1900-01-01 11:10:57.100,21.499207,39.245548,27.86,698,148,16268,12,-16,7,163.0,-1.96,-0.31,16308.706018565666,0.000758
445,1900-01-01 11:10:57.300,21.49921,39.245564,27.86,1632,592,16866,1,-45,10,162.95,-2.08,-0.25,16308.652672737868,0.001689
446,1900-01-01 11:10:57.400,21.499212,39.245571,28.13,1142,-142,16604,-33,96,-1,162.92,-2.42,-0.31,16308.652672737868,0.000758
447,1900-01-01 11:10:57.600,21.499216,39.245586,28.13,1216,-526,14416,10,12,6,162.9,-2.53,-0.44,16653.764499355693,0.001614
448,1900-01-01 11:10:57.700,21.499218,39.245594,28.32,1086,-420,16166,6,12,14,162.81,-2.55,-0.42,16217.108620219573,0.000857
449,1900-01-01 11:10:57.800,21.499222,39.245602,28.94,1374,-714,17226,0,-28,5,162.73,-2.61,-0.45,16055.624310502535,0.00094
450,1900-01-01 11:10:58.000,21.499226,39.245617,28.94,1216,10,16004,-3,-24,3,162.7,-2.81,-0.44,16205.067602450785,0.001614
451,1900-01-01 11:10:58.100,21.499228,39.245625,29.59,906,164,15664,-9,-25,6,162.64,-2.88,-0.44,16049.801120263142,0.000857
452,1900-01-01 11:10:58.300,21.499231,39.24564,29.59,742,-292,17692,-7,14,0,162.62,-2.83,-0.46,16029.899812537818,0.001587
453,1900-01-01 11:10:58.400,21.499235,39.245647,29.86,1208,-94,15478,-2,46,-2,162.62,-2.98,-0.49,16810.63579999281,0.00085
454,1900-01-01 11:10:58.600,21.499239,39.245663,29.86,646,-408,17176,1,-64,1,162.62,-2.97,-0.47,16825.68702906363,0.001714
455,1900-01-01 11:10:58.700,21.499241,39.24567,30.09,1152,-272,16784,1,-19,2,162.62,-2.99,-0.43,15642.847950421305,0.000758
456,1900-01-01 11:10:58.800,21.499243,39.245678,30.19,1468,166,15598,-4,57,-5,162.62,-3.07,-0.39,16809.045660001048,0.000857
457,1900-01-01 11:10:59.000,21.499249,39.245697,30.19,876,-416,15186,15,80,-1,162.62,-3.16,-0.4,15757.860768518041,0.002076
458,1900-01-01 11:10:59.100,21.49925,39.245705,30.67,598,486,17136,15,-83,6,162.61,-3.3,-0.29,15749.257379317922,0.000835
459,1900-01-01 11:10:59.300,21.499256,39.24572,30.67,996,-406,15724,-1,-24,-2,162.61,-3.43,-0.22,15745.674326620629,0.001689
460,1900-01-01 11:10:59.400,21.499258,39.245728,31.15,718,454,17984,16,-90,-1,162.63,-3.47,-0.19,15745.674326620629,0.000857
461,1900-01-01 11:10:59.500,21.49926,39.245735,31.35,728,390,15164,10,66,-10,162.67,-3.52,-0.01,15626.404448880747,0.000758
462,1900-01-01 11:10:59.700,21.499266,39.245754,31.35,1930,380,15590,-11,85,-16,162.77,-3.65,0.06,15214.124095721054,0.002076
463,1900-01-01 11:10:59.800,21.499268,39.245762,32.26,1194,158,14974,-2,42,-12,162.9,-3.69,0.04,15210.507683834883,0.000857
464,1900-01-01 11:11:00.000,21.499273,39.245781,32.26,1174,-314,14176,1,85,-11,162.97,-3.64,-0.01,15635.240580176565,0.002043
465,1900-01-01 11:11:00.100,21.499275,39.245789,32.88,1178,-308,16172,3,77,-7,163.05,-3.6,-0.06,16215.616917034024,0.000857
466,1900-01-01 11:11:00.300,21.499281,39.245804,33.02,766,324,17430,2,-14,-4,163.08,-3.59,-0.03,16217.009095391171,0.001689
467,1900-01-01 11:11:00.400,21.499283,39.245815,33.02,1636,354,16480,-4,59,-5,163.11,-3.57,-0.02,16195.740427655663,0.00116
468,1900-01-01 11:11:00.500,21.499287,39.245823,33.13,830,282,16126,-15,10,-7,163.14,-3.59,-0.06,16149.808048394878,0.00094
469,1900-01-01 11:11:00.700,21.49929,39.245842,33.69,720,-590,15434,0,11,-6,163.19,-3.48,-0.19,16153.733190813819,0.001994
470,1900-01-01 11:11:00.800,21.499294,39.24585,33.69,938,-336,15924,1,64,-4,163.22,-3.49,-0.2,15951.700724374188,0.00094
471,1900-01-01 11:11:00.900,21.499296,39.245857,33.97,1042,124,17270,29,59,0,163.23,-3.62,-0.17,15918.170874821013,0.000758
472,1900-01-01 11:11:01.100,21.499302,39.245876,33.97,1006,56,15888,13,-8,1,163.24,-3.77,-0.05,15954.102795206003,0.002076
473,1900-01-01 11:11:01.200,21.499304,39.245888,35.37,978,238,15266,0,-21,-2,163.27,-3.7,-0.01,16986.27045587112,0.001261
474,1900-01-01 11:11:01.400,21.49931,39.245907,35.37,156,-194,17054,-18,-58,-5,163.3,-3.58,-0.01,16965.403148761307,0.002076
475,1900-01-01 11:11:01.500,21.499313,39.245914,36.0,202,-94,16958,-7,51,-5,163.33,-3.39,-0.13,16960.16261714492,0.000797
476,1900-01-01 11:11:01.700,21.499317,39.245934,36.28,498,334,18000,-20,60,-4,163.36,-3.3,-0.2,16960.16261714492,0.002116
477,1900-01-01 11:11:01.800,21.499321,39.245945,36.28,254,-406,15650,8,33,-3,163.37,-3.25,-0.35,16960.16261714492,0.001222
478,1900-01-01 11:11:01.900,21.499323,39.245953,36.5,584,442,14276,2,53,-3,163.4,-3.07,-0.37,17641.488712690887,0.000857
479,1900-01-01 11:11:02.100,21.499329,39.245972,36.81,-8,-1300,17638,10,-107,2,163.41,-2.65,-0.44,17002.745895883992,0.002076
480,1900-01-01 11:11:02.200,21.499331,39.245983,36.81,-142,-242,18060,18,-91,0,163.43,-2.37,-0.37,16997.724671261152,0.00116
481,1900-01-01 11:11:02.300,21.499332,39.245991,36.84,714,-740,16996,31,37,3,163.44,-2.24,-0.26,16997.724671261152,0.000835
482,1900-01-01 11:11:02.400,21.499336,39.246002,36.88,-316,-162,16224,-8,-24,0,163.45,-2.36,-0.12,16228.246239196644,0.001222
483,1900-01-01 11:11:02.600,21.49934,39.246021,36.88,334,-142,15976,1,-79,-2,163.46,-2.46,-0.13,16228.246239196644,0.002015
484,1900-01-01 11:11:02.700,21.499344,39.246029,37.06,1076,162,16216,1,62,-2,163.49,-2.33,-0.15,16227.35788722243,0.00094
485,1900-01-01 11:11:02.800,21.499346,39.24604,37.15,298,-410,16390,26,-33,4,163.49,-2.18,-0.17,16220.060912339386,0.00116
486,1900-01-01 11:11:03.000,21.499352,39.246059,37.37,26,174,18998,11,-110,5,163.49,-2.17,-0.07,16392.97837490186,0.002076
487,1900-01-01 11:11:03.100,21.499353,39.246071,37.37,726,-456,15684,-7,1,-2,163.49,-2.22,0.04,16390.85049654227,0.001246
488,1900-01-01 11:11:03.200,21.499357,39.246078,37.58,-74,-94,18008,18,-68,-2,163.51,-2.02,0.02,16048.296358180827,0.00085
489,1900-01-01 11:11:03.300,21.499359,39.24609,37.69,138,-48,16048,13,-22,4,163.53,-1.8,0.06,16048.697143382076,0.001261
490,1900-01-01 11:11:03.500,21.499365,39.246109,37.91,-156,-626,15636,-15,13,-3,163.53,-1.64,0.1,16968.97745888066,0.002076
491,1900-01-01 11:11:03.600,21.499367,39.24612,37.91,-274,-130,16968,-1,14,0,163.53,-1.43,0.04,16048.82998850695,0.00116
492,1900-01-01 11:11:03.700,21.499371,39.246128,37.94,-238,266,17476,-25,13,0,163.55,-1.27,0.0,15805.304552586134,0.00094
493,1900-01-01 11:11:03.800,21.499372,39.24614,37.9,740,320,15804,-4,93,-4,163.58,-1.07,-0.19,16860.181137816995,0.001246
494,1900-01-01 11:11:04.000,21.499378,39.246159,37.97,1008,-130,15158,-5,14,-2,163.59,-1.1,-0.25,16737.51630320341,0.002076
495,1900-01-01 11:11:04.100,21.49938,39.24617,37.97,-292,130,16858,1,-6,1,163.59,-0.94,-0.3,15805.605714429295,0.00116
496,1900-01-01 11:11:04.200,21.499382,39.246181,38.01,184,-318,16736,34,37,4,163.59,-0.78,-0.35,15160.599064680788,0.00116
497,1900-01-01 11:11:04.400,21.499388,39.246201,38.06,-36,-286,13534,10,114,0,163.57,-0.78,-0.16,16701.384373757763,0.002174
498,1900-01-01 11:11:04.500,21.49939,39.246208,38.06,518,-212,14758,1,11,-3,163.55,-0.75,-0.03,16702.253740139382,0.000758
499,1900-01-01 11:11:04.600,21.499393,39.24622,38.04,-70,580,16700,12,-83,3,163.56,-0.4,0.0,16701.384373757763,0.001286
500,1900-01-01 11:11:04.800,21.499399,39.246239,37.77,-388,-272,18406,-9,-143,7,163.53,-0.2,0.11,16701.46819893389,0.002076
501,1900-01-01 11:11:04.900,21.499401,39.24625,37.77,508,1058,17020,3,54,2,163.51,-0.3,0.06,16700.240597069253,0.00116
502,1900-01-01 11:11:05.100,21.499407,39.246269,37.67,-64,-330,16170,8,50,3,163.48,-0.26,-0.06,16400.220486322738,0.002076
503,1900-01-01 11:11:05.200,21.499409,39.246281,37.67,-282,56,15610,-12,2,2,163.46,-0.14,-0.08,16175.851013161564,0.001261
504,1900-01-01 11:11:05.300,21.499413,39.246288,37.64,-30,482,16400,-7,-19,3,163.44,-0.06,-0.16,15610.231644661779,0.00085
