Counter,Time,Latitude,Longitude,Speed(km/h),Ax,Ay,Az,Gx,Gy,Gz,Yaw,Pitch,Roll,acceleration_magnitude,distance
1,1900-01-01 19:33:50.900,21.78776,39.069176,0.46,-122,-90,16068,-4,2,1,0.01,-0.01,0.4,0.0,0.0
2,1900-01-01 19:33:51.000,21.78776,39.069176,0.81,-52,-98,16342,-5,3,1,0.01,-0.02,0.36,0.0,0.0
3,1900-01-01 19:33:51.100,21.787758,39.069172,0.39,76,152,15986,-2,5,1,0.0,-0.02,0.33,16342.612153508386,0.000469
4,1900-01-01 19:33:51.200,21.787756,39.069172,0.42,-102,-166,16354,-2,0,0,0.01,-0.02,0.29,16342.376571355831,0.000222
5,1900-01-01 19:33:51.300,21.787754,39.069168,0.22,-122,-130,16490,0,-2,-1,0.01,-0.02,0.27,16308.436589691852,0.000469
6,1900-01-01 19:33:51.400,21.787754,39.069168,0.14,78,92,16308,2,-5,-1,0.01,-0.01,0.24,16308.18959909407,0.0
7,1900-01-01 19:33:51.500,21.787752,39.069164,0.26,308,160,16106,0,-1,0,0.01,-0.02,0.2,16109.028648556065,0.000469
8,1900-01-01 19:33:51.700,21.787752,39.069164,0.67,906,10,15672,4,9,0,0.01,-0.34,0.18,16119.356562840838,0.0
9,1900-01-01 19:33:51.800,21.787752,39.069164,0.4,654,52,16052,-3,5,0,0.01,-0.59,0.18,16128.392480343477,0.0
10,1900-01-01 19:33:51.900,21.78775,39.06916,0.52,848,-212,17014,0,-1,0,0.01,-0.76,0.18,16251.357358694688,0.000469
11,1900-01-01 19:33:52.000,21.78775,39.06916,0.32,1092,144,16226,3,1,0,0.0,-0.99,0.18,16289.234481706008,0.0
12,1900-01-01 19:33:52.100,21.78775,39.06916,0.34,1132,174,16262,6,1,2,-0.0,-1.2,0.2,16289.543885572733,0.0
13,1900-01-01 19:33:52.300,21.787752,39.06916,0.39,940,54,16502,4,-4,1,-0.02,-1.45,0.24,16263.07338727831,0.000222
14,1900-01-01 19:33:52.400,21.787752,39.06916,0.41,918,114,16096,4,-1,2,-0.02,-1.58,0.25,16289.543885572733,0.0
15,1900-01-01 19:33:52.500,21.787752,39.06916,0.56,1088,302,16118,1,4,3,-0.04,-1.71,0.27,16527.89375570886,0.0
16,1900-01-01 19:33:52.600,21.787754,39.06916,0.54,874,72,16670,7,-2,4,-0.06,-1.85,0.29,16198.421281100205,0.000222
17,1900-01-01 19:33:52.700,21.787754,39.06916,0.66,922,-98,16792,6,5,1,-0.08,-1.92,0.29,16234.65835796984,0.0
18,1900-01-01 19:33:52.800,21.787754,39.06916,0.69,1106,48,16172,2,7,5,-0.09,-2.06,0.28,16295.445498666184,0.0
19,1900-01-01 19:33:53.000,21.787754,39.06916,1.06,1148,250,16198,2,-2,8,-0.13,-2.21,0.28,16240.627204637141,0.0
20,1900-01-01 19:33:53.100,21.787756,39.06916,0.98,978,16,16266,5,-3,7,-0.21,-2.38,0.3,16240.690256266818,0.000222
21,1900-01-01 19:33:53.200,21.787756,39.06916,1.12,1090,-96,16204,-3,-11,5,-0.24,-2.44,0.3,16240.965242250844,0.0
22,1900-01-01 19:33:53.300,21.787756,39.06916,1.49,972,106,16502,22,-20,8,-0.27,-2.45,0.28,16302.824663229376,0.0
23,1900-01-01 19:33:53.400,21.787756,39.06916,1.3,1710,308,16056,0,-2,17,-0.34,-2.57,0.35,16405.157481718972,0.0
24,1900-01-01 19:33:53.500,21.787758,39.06916,1.7,1666,214,16600,-13,-8,11,-0.44,-2.76,0.46,16409.684213902474,0.000222
25,1900-01-01 19:33:53.600,21.787758,39.06916,1.83,2100,-66,16320,-9,-7,11,-0.49,-3.04,0.4,16321.846709242187,0.0
26,1900-01-01 19:33:53.700,21.78776,39.06916,1.81,2436,78,16186,0,-7,23,-0.61,-3.36,0.26,16500.987243192452,0.000222
27,1900-01-01 19:33:53.800,21.78776,39.06916,2.26,2650,-32,15732,2,-12,24,-0.76,-3.76,0.24,16401.56126714771,0.0
28,1900-01-01 19:33:53.900,21.78776,39.06916,2.27,3334,264,17620,0,20,29,-0.94,-4.33,0.3,16447.819429942683,0.0
29,1900-01-01 19:33:54.000,21.787762,39.06916,2.33,3056,46,16108,-20,33,33,-1.12,-4.85,0.29,16837.714096634376,0.000222
30,1900-01-01 19:33:54.100,21.787762,39.06916,2.45,2922,480,17210,-30,38,34,-1.35,-5.54,0.21,16837.714096634376,0.0
31,1900-01-01 19:33:54.200,21.787762,39.06916,2.59,3062,-682,16558,-4,5,34,-1.61,-6.17,0.01,16837.714096634376,0.0
32,1900-01-01 19:33:54.400,21.787762,39.069164,1.83,3018,-560,15280,9,-1,35,-1.81,-6.66,-0.12,16839.10056980479,0.000413
33,1900-01-01 19:33:54.500,21.787762,39.069164,2.12,3720,110,16884,25,20,37,-2.03,-7.09,-0.02,16971.089063463194,0.0
34,1900-01-01 19:33:54.600,21.787762,39.069164,2.05,4468,140,16360,7,17,45,-2.27,-7.61,0.14,17372.199054811685,0.0
35,1900-01-01 19:33:54.700,21.787762,39.069164,2.13,4088,742,16912,-7,-3,42,-2.52,-8.12,0.28,17465.525471625526,0.0
36,1900-01-01 19:33:54.800,21.787762,39.069164,2.79,4534,-550,18670,17,5,41,-2.92,-8.86,0.22,17282.057863576316,0.0
37,1900-01-01 19:33:54.900,21.787762,39.069164,3.1,4772,-916,16688,18,6,45,-3.17,-9.3,0.19,17187.735278389646,0.0
38,1900-01-01 19:33:55.000,21.787762,39.069164,3.24,2676,-466,14670,-7,-12,48,-3.45,-9.57,0.27,15070.984705718469,0.0
39,1900-01-01 19:33:55.100,21.78776,39.069168,3.97,2690,154,14118,-7,34,43,-3.8,-9.85,0.36,15065.819459956369,0.000469
40,1900-01-01 19:33:55.200,21.78776,39.069168,4.66,2936,-960,14772,-36,-25,35,-4.11,-10.02,0.34,15059.398261550825,0.0
41,1900-01-01 19:33:55.399,21.787758,39.069168,6.72,2924,234,15626,-24,28,29,-4.43,-10.18,0.33,15888.138594561668,0.000222
42,1900-01-01 19:33:55.499,21.787756,39.069172,6.42,3686,472,15616,12,-15,18,-4.58,-10.36,0.38,15899.189539092866,0.000469
43,1900-01-01 19:33:55.599,21.787754,39.069172,7.71,2418,-256,15624,28,-22,8,-4.63,-10.48,0.45,15896.977951799518,0.000222
44,1900-01-01 19:33:55.699,21.787754,39.069176,10.19,3456,966,16840,-11,-4,12,-4.7,-10.53,0.61,15884.982593632263,0.000413
45,1900-01-01 19:33:55.799,21.787743,39.069187,12.02,2126,200,14964,-39,-8,15,-4.94,-10.01,0.38,15892.84719614456,0.001669
46,1900-01-01 19:33:55.999,21.787739,39.069195,12.2,2904,-72,14920,-5,-10,11,-5.14,-10.08,0.06,16583.470444994316,0.000938
47,1900-01-01 19:33:56.199,21.787733,39.069199,12.37,3132,262,18782,-13,16,6,-5.29,-10.14,-0.09,16448.67532660305,0.000785
48,1900-01-01 19:33:56.500,21.787724,39.069206,13.95,2148,98,16326,28,6,21,-5.47,-10.04,-0.21,16623.864893579954,0.001234
49,1900-01-01 19:33:56.700,21.787716,39.069214,16.08,3370,-980,16190,-17,-19,2,-5.72,-10.41,-0.31,16635.94734302799,0.001214
50,1900-01-01 19:33:56.900,21.787708,39.069221,17.1,3134,-638,17302,6,7,12,-5.68,-9.73,-0.41,16460.75210918383,0.001146
51,1900-01-01 19:33:57.200,21.787697,39.069233,19.47,2904,-1310,15296,-13,-23,12,-5.93,-9.99,-0.42,16439.11445303548,0.001741
52,1900-01-01 19:33:57.400,21.787689,39.069244,21.32,1762,-408,15102,21,-6,11,-5.97,-9.68,-0.41,16430.383562169205,0.001443
53,1900-01-01 19:33:57.600,21.78768,39.069256,22.71,2896,696,16168,16,26,4,-6.1,-9.86,0.11,16426.155849741594,0.001593
54,1900-01-01 19:33:57.900,21.787663,39.069271,26.16,2578,638,16454,-23,37,0,-6.11,-9.29,0.25,16373.083521438472,0.002444
55,1900-01-01 19:33:58.200,21.787645,39.06929,29.45,2906,166,17080,16,1,1,-6.15,-9.25,-0.06,16381.013521757437,0.002803
56,1900-01-01 19:33:58.500,21.787626,39.069309,31.65,1630,-366,16092,-7,-8,1,-6.21,-8.79,-0.08,16604.23391788974,0.002883
57,1900-01-01 19:33:58.700,21.787613,39.069324,32.38,2192,536,15598,-17,10,0,-6.22,-8.82,-0.04,16650.397352615943,0.002119
58,1900-01-01 19:33:59.000,21.787594,39.069344,33.52,2020,402,16526,12,2,-9,-6.15,-8.73,-0.16,16607.5956116471,0.002954
59,1900-01-01 19:33:59.200,21.78758,39.069359,34.18,748,216,16692,25,10,-8,-6.03,-8.06,-0.06,16590.23459749741,0.002196
60,1900-01-01 19:33:59.500,21.787561,39.069378,35.45,1402,198,17612,29,-3,-16,-5.83,-7.59,0.4,16554.72210579205,0.002883
61,1900-01-01 19:33:59.700,21.787548,39.069393,36.83,888,674,13270,-9,-24,-14,-5.6,-7.11,0.69,16722.33966883821,0.002119
62,1900-01-01 19:33:59.900,21.787533,39.069408,37.63,448,1140,15962,9,-1,-20,-5.33,-6.13,0.84,16356.933942521135,0.002276
63,1900-01-01 19:34:00.200,21.787512,39.069431,39.41,156,1284,17736,16,8,-23,-5.0,-5.02,1.2,16358.24367100576,0.003331
64,1900-01-01 19:34:00.400,21.787497,39.069447,39.94,176,970,16322,5,-4,-26,-4.69,-4.11,1.47,16358.040713973052,0.002348
65,1900-01-01 19:34:00.700,21.787476,39.069469,39.96,-1846,1074,17462,-14,-8,-21,-4.33,-2.64,1.58,16905.111416373453,0.003258
66,1900-01-01 19:34:00.900,21.78746,39.069485,39.92,-2764,272,15578,-18,-14,-24,-4.08,-1.0,1.5,17022.419686989273,0.002428
67,1900-01-01 19:34:01.100,21.787445,39.0695,39.76,-3610,830,16776,-7,-20,-25,-3.78,1.38,1.4,17152.938640361306,0.002276
68,1900-01-01 19:34:01.400,21.787424,39.069523,39.69,-4032,678,16792,-8,2,-30,-3.52,3.12,1.39,17172.174935051182,0.003331
69,1900-01-01 19:34:01.600,21.787409,39.069538,39.55,-3434,126,17034,9,-14,-32,-3.07,4.94,1.5,17267.046186305288,0.002276
70,1900-01-01 19:34:01.800,21.787394,39.069553,39.42,-6344,646,15764,-12,-9,-32,-2.79,6.07,1.57,17311.27470754248,0.002276
71,1900-01-01 19:34:02.000,21.787378,39.069569,39.35,-5902,1276,15526,1,1,-34,-2.45,7.68,1.49,17299.676066331416,0.002428
72,1900-01-01 19:34:02.200,21.787363,39.069584,39.29,-5640,-576,16354,3,21,-29,-2.15,9.19,1.42,17299.402186202853,0.002276
73,1900-01-01 19:34:02.400,21.787348,39.069595,39.12,-4838,80,18494,7,-10,-24,-1.87,10.49,1.44,17151.838968460495,0.002018
74,1900-01-01 19:34:02.600,21.787334,39.069611,38.16,-4616,-660,17296,16,-1,-18,-1.62,11.44,1.34,17290.63677254253,0.00227
75,1900-01-01 19:34:02.800,21.787319,39.069622,37.64,-5150,-458,16190,-23,0,10,-1.57,12.35,0.96,17712.786342075036,0.002018
76,1900-01-01 19:34:03.000,21.787306,39.069637,37.19,-3470,-2212,16590,-19,3,71,-2.03,12.8,-0.29,17124.64855113821,0.002119
77,1900-01-01 19:34:03.200,21.787291,39.069649,36.57,-3648,-2530,17088,7,-22,150,-3.76,12.67,-2.24,17129.767891013584,0.002078
78,1900-01-01 19:34:03.400,21.787277,39.06966,35.91,-3482,-2172,14840,-21,-22,202,-5.81,12.67,-3.64,17139.233471774634,0.001927
79,1900-01-01 19:34:03.600,21.787264,39.069672,34.69,-4020,-3724,17348,-1,4,267,-8.65,12.78,-5.42,16989.708061058613,0.001904
80,1900-01-01 19:34:03.800,21.787252,39.069683,32.94,-932,-3484,15746,-9,-33,369,-13.15,11.38,-7.76,16761.81708526853,0.001752
81,1900-01-01 19:34:04.100,21.787235,39.069698,30.1,-1644,-4678,16260,-19,-26,456,-18.63,9.83,-10.06,16773.4466344875,0.002444
82,1900-01-01 19:34:04.300,21.787228,39.069706,27.78,-1162,-4926,16570,17,-41,528,-26.32,8.2,-12.48,16916.036533419996,0.001135
83,1900-01-01 19:34:04.500,21.78722,39.069714,26.06,-1968,-3776,16226,-8,-35,577,-33.14,7.01,-13.48,16933.71465449917,0.001214
84,1900-01-01 19:34:04.700,21.787214,39.069721,24.18,-2170,-4366,16536,-40,-59,598,-40.46,5.95,-14.65,16861.010527248953,0.000984
85,1900-01-01 19:34:04.900,21.787209,39.069725,22.95,-188,-4434,15328,1,-50,638,-48.32,4.25,-15.47,16098.261645283319,0.000693
86,1900-01-01 19:34:05.100,21.787203,39.069733,21.8,68,-4588,15440,2,-40,669,-56.21,1.98,-15.69,16097.257778888925,0.001062
87,1900-01-01 19:34:05.300,21.787197,39.06974,20.9,-946,-3584,15466,-52,-81,664,-64.87,0.26,-15.5,16140.356129899985,0.000984
88,1900-01-01 19:34:05.500,21.787193,39.069748,19.67,-514,-5492,16460,-47,-79,681,-73.25,-0.65,-16.13,16798.05298241436,0.000938
89,1900-01-01 19:34:05.700,21.787189,39.069756,18.94,-1016,-5418,16676,-45,-69,702,-81.46,-1.3,-16.43,17292.724366044815,0.000938
90,1900-01-01 19:34:05.900,21.787188,39.069763,17.91,-68,-5432,15892,-45,-69,727,-90.37,-2.5,-16.85,17297.115828946742,0.000731
91,1900-01-01 19:34:06.100,21.787186,39.069771,16.65,-60,-5300,16414,-41,-81,731,-99.56,-3.66,-17.14,17092.269714698512,0.000855
92,1900-01-01 19:34:06.300,21.787186,39.069778,15.48,-610,-6326,15664,-11,-52,745,-108.86,-4.58,-17.34,17104.898128898636,0.000723
93,1900-01-01 19:34:06.500,21.787188,39.069786,14.65,428,-6562,16206,-46,-41,764,-118.31,-5.71,-17.41,16893.378229353653,0.000855
94,1900-01-01 19:34:06.700,21.787189,39.069794,14.16,84,-6416,15484,-50,-57,746,-128.31,-6.95,-17.64,16728.391913151725,0.000833
95,1900-01-01 19:34:06.900,21.787189,39.069798,13.62,258,-5856,14654,-35,-65,702,-136.98,-7.8,-17.45,16559.89661803479,0.000413
96,1900-01-01 19:34:07.100,21.787193,39.069805,13.37,1132,-5706,15116,-12,-60,628,-145.23,-8.59,-16.76,16508.198811499697,0.000849
97,1900-01-01 19:34:07.300,21.787195,39.069813,12.12,2388,-3600,15816,-32,-82,579,-150.76,-9.15,-15.99,16356.311686929912,0.000855
98,1900-01-01 19:34:07.500,21.787201,39.069817,10.79,456,-4452,15698,-27,-28,505,-157.06,-9.59,-15.26,16165.545706842067,0.000785
99,1900-01-01 19:34:07.700,21.787207,39.06982,10.32,1392,-3448,15922,2,-19,421,-162.12,-10.07,-14.44,16329.63747301207,0.000736
100,1900-01-01 19:34:07.800,21.78721,39.06982,10.16,2368,-1266,14292,39,-8,288,-166.05,-10.49,-12.54,16060.468361788207,0.000334
101,1900-01-01 19:34:08.000,21.787216,39.069824,10.1,2150,228,17462,47,-17,144,-168.38,-10.23,-9.53,16062.255258835852,0.000785
102,1900-01-01 19:34:08.200,21.787226,39.069824,10.73,1564,-1408,16150,-15,13,89,-169.59,-9.84,-8.04,16288.292114276439,0.001112
103,1900-01-01 19:34:08.400,21.787237,39.069824,11.88,1698,-672,14894,-1,-7,92,-170.78,-9.6,-7.46,16303.583164445783,0.001223
104,1900-01-01 19:34:08.700,21.787249,39.06982,12.21,1472,-1368,17746,22,6,100,-172.05,-9.18,-6.74,16303.583164445783,0.001397
105,1900-01-01 19:34:08.900,21.78726,39.069817,13.54,2152,-968,16186,-14,-10,73,-173.18,-8.92,-5.78,17587.021123544488,0.001262
106,1900-01-01 19:34:09.100,21.787271,39.069813,14.79,2770,-584,17428,-6,-11,69,-174.01,-8.79,-5.38,17587.021123544488,0.001291
107,1900-01-01 19:34:09.300,21.787285,39.069805,16.64,2532,-984,17852,-8,2,71,-174.86,-8.55,-5.01,17569.0255848183,0.001762
108,1900-01-01 19:34:09.500,21.7873,39.069798,19.2,1022,100,16340,7,-25,52,-175.62,-8.29,-4.55,17602.49005112629,0.001818
109,1900-01-01 19:34:09.700,21.787319,39.069778,25.09,1856,-850,17416,1,21,47,-176.06,-8.09,-4.18,16788.57146990178,0.002954
110,1900-01-01 19:34:09.900,21.787334,39.069771,26.39,2410,-1032,15752,3,33,51,-176.54,-8.16,-3.84,16433.748811515892,0.001818
111,1900-01-01 19:34:10.100,21.787348,39.069759,27.56,1750,102,16664,12,-27,35,-177.0,-8.07,-3.35,16774.724915777308,0.00199
112,1900-01-01 19:34:10.200,21.787355,39.069752,28.22,1670,896,14546,8,5,14,-177.19,-7.71,-2.62,16755.948197580463,0.001062
113,1900-01-01 19:34:10.400,21.787369,39.069744,29.63,1400,-800,19104,10,-22,10,-177.26,-7.67,-2.21,16865.348499215783,0.001762
114,1900-01-01 19:34:10.600,21.787384,39.069729,31.87,1994,484,16774,-51,34,10,-177.4,-7.5,-1.83,16860.35515640166,0.002276
115,1900-01-01 19:34:10.800,21.787399,39.069717,32.93,1810,-340,18724,27,26,5,-177.51,-7.51,-1.87,16849.44545081529,0.002078
116,1900-01-01 19:34:10.900,21.787407,39.06971,33.45,1556,-730,15698,13,-11,18,-177.63,-7.54,-1.5,15794.509552372938,0.001146
117,1900-01-01 19:34:11.100,21.787422,39.069698,33.97,412,396,15714,54,-20,13,-177.74,-7.13,-1.29,15752.155535037102,0.002078
118,1900-01-01 19:34:11.200,21.78743,39.069691,34.1,1260,-1378,15188,22,1,18,-177.87,-6.52,-0.76,15710.451171115361,0.001146
119,1900-01-01 19:34:11.400,21.787445,39.069679,34.51,484,1210,14590,-11,-50,12,-177.97,-6.19,-0.36,15747.306309334304,0.002078
120,1900-01-01 19:34:11.600,21.78746,39.069668,35.52,214,1348,15850,-17,-26,2,-178.03,-5.95,-0.14,15266.844729674825,0.002018
121,1900-01-01 19:34:11.800,21.787476,39.069653,36.18,2148,902,15818,-42,-4,0,-178.09,-5.9,-0.03,15893.245231858722,0.002359
122,1900-01-01 19:34:11.900,21.787485,39.069649,36.88,1578,-64,14760,-26,33,-4,-178.01,-5.59,-0.25,15929.265017570648,0.001083
123,1900-01-01 19:34:12.100,21.7875,39.069633,37.39,1254,170,16738,-25,-16,4,-178.05,-5.62,-0.25,16813.079075529266,0.002348
124,1900-01-01 19:34:12.300,21.787516,39.069622,38.06,1624,-452,17624,31,32,-3,-178.03,-5.49,-0.22,17567.13397227903,0.002111
125,1900-01-01 19:34:12.400,21.787525,39.069614,38.24,1576,522,17496,-12,17,-11,-178.02,-5.75,0.09,17567.660402000034,0.001298
126,1900-01-01 19:34:12.600,21.78754,39.069599,38.9,1840,-458,17536,4,-19,-5,-177.94,-5.6,0.03,17572.65193418455,0.002276
127,1900-01-01 19:34:12.800,21.787556,39.069584,39.29,848,448,15798,2,1,4,-177.95,-5.3,0.02,16304.42811017915,0.002359
128,1900-01-01 19:34:12.900,21.787565,39.069576,39.5,1180,-646,16234,23,21,6,-177.93,-5.21,0.26,16304.42811017915,0.001298
129,1900-01-01 19:34:13.100,21.787582,39.069565,40.3,1446,694,15786,-1,31,0,-177.93,-5.24,0.59,16304.42811017915,0.002205
130,1900-01-01 19:34:13.300,21.787598,39.06955,40.47,1702,1592,19072,-17,3,-8,-177.89,-5.21,0.85,16323.40295404117,0.002359
131,1900-01-01 19:34:13.400,21.787607,39.069542,40.7,2350,118,18398,-9,0,-2,-177.86,-5.06,0.59,18479.5353837698,0.001298
132,1900-01-01 19:34:13.600,21.787624,39.069527,41.46,1730,-1278,16130,-11,-29,-1,-177.87,-5.02,0.38,18493.369406357513,0.002444
133,1900-01-01 19:34:13.800,21.787642,39.069511,41.81,1872,-168,19216,-14,-36,-6,-177.85,-4.69,0.42,18493.117963177545,0.002595
134,1900-01-01 19:34:14.000,21.787659,39.069496,42.17,2454,632,17824,-31,64,0,-177.77,-4.77,0.48,17919.470193060955,0.002444
135,1900-01-01 19:34:14.200,21.787676,39.069481,43.26,1844,68,18956,-2,-40,-4,-177.77,-5.05,0.46,17922.164601409062,0.002444
136,1900-01-01 19:34:14.300,21.787685,39.069469,43.43,1144,-110,14634,0,1,-2,-177.73,-4.89,0.47,17304.663995582232,0.001593
137,1900-01-01 19:34:14.500,21.787703,39.069454,43.83,2352,636,15202,-24,-6,-2,-177.69,-4.72,0.54,17086.028912535527,0.002531
138,1900-01-01 19:34:14.700,21.787722,39.069439,43.98,1356,-98,17206,6,-14,0,-177.7,-4.54,0.48,17086.174645016363,0.00262
139,1900-01-01 19:34:14.900,21.787739,39.069424,44.26,1276,736,17032,1,20,4,-177.73,-4.38,0.36,17111.164074954107,0.002444
140,1900-01-01 19:34:15.000,21.787748,39.069416,44.29,1780,-170,17260,6,24,3,-177.76,-4.51,0.29,17086.174645016363,0.001298
141,1900-01-01 19:34:15.200,21.787766,39.069401,44.72,1624,256,16030,-18,-16,2,-177.78,-4.52,0.24,16096.50906252657,0.002531
142,1900-01-01 19:34:15.300,21.787775,39.069393,44.94,1006,-844,14690,-23,19,1,-177.8,-4.46,0.17,16095.713839404576,0.001298
143,1900-01-01 19:34:15.500,21.787794,39.069378,45.34,1448,200,15712,-11,4,4,-177.83,-4.49,0.06,15770.135953757659,0.00262
144,1900-01-01 19:34:15.700,21.787813,39.069363,45.73,1338,-120,18314,-8,-45,3,-177.87,-4.33,0.02,15495.938177470895,0.00262
145,1900-01-01 19:34:15.800,21.787823,39.069351,45.87,1310,324,15440,23,40,10,-177.94,-4.08,0.02,15496.764178369625,0.001665
146,1900-01-01 19:34:16.000,21.787842,39.069336,46.89,982,-420,13866,4,13,6,-178.01,-4.14,0.12,15493.582284287904,0.00262
147,1900-01-01 19:34:16.200,21.787861,39.069321,47.63,1246,446,15146,-3,-20,4,-178.06,-3.87,0.22,15496.385384985751,0.00262
148,1900-01-01 19:34:16.300,21.78787,39.069313,47.72,816,438,17478,13,1,1,-178.07,-3.64,0.28,17361.3292117856,0.001298
149,1900-01-01 19:34:16.500,21.787889,39.069294,47.93,1786,838,17328,-19,27,4,-178.09,-3.66,0.35,17502.519361509076,0.002883
150,1900-01-01 19:34:16.600,21.787901,39.069286,48.08,514,282,17786,15,-15,1,-178.11,-3.86,0.24,17499.310386412373,0.001569
151,1900-01-01 19:34:16.800,21.78792,39.069271,48.27,168,-678,19016,0,-15,-1,-178.1,-3.8,0.26,17365.198415221173,0.00262
152,1900-01-01 19:34:17.000,21.787939,39.069252,48.51,1136,-36,15574,23,18,1,-178.1,-3.8,0.2,16445.530578245263,0.002883
153,1900-01-01 19:34:17.100,21.787949,39.069244,48.58,1342,6,15358,22,-5,2,-178.12,-3.75,0.28,15590.217188993873,0.001385
154,1900-01-01 19:34:17.300,21.787968,39.069225,48.86,666,-150,16432,-4,-19,-1,-178.12,-3.59,0.43,15612.098257441246,0.002883
155,1900-01-01 19:34:17.400,21.787979,39.069218,49.04,710,696,14872,-25,11,0,-178.11,-3.42,0.5,16447.33291448799,0.001421
156,1900-01-01 19:34:17.600,21.787998,39.069199,49.78,1090,22,16878,2,7,-3,-178.11,-3.43,0.45,16447.346533711752,0.002883
157,1900-01-01 19:34:17.700,21.788008,39.069191,50.1,286,-172,16448,9,34,3,-178.12,-3.5,0.42,16491.181279702192,0.001385
158,1900-01-01 19:34:17.900,21.788029,39.069172,50.17,1696,618,16094,11,21,0,-178.11,-3.43,0.48,16527.199036739406,0.00305
159,1900-01-01 19:34:18.000,21.788038,39.069164,50.25,1454,484,16456,-8,11,-1,-178.09,-3.47,0.69,16531.665856773176,0.001298
160,1900-01-01 19:34:18.200,21.788057,39.069145,50.48,2248,674,17080,-19,2,-3,-178.08,-3.52,0.7,16531.665856773176,0.002883
161,1900-01-01 19:34:18.400,21.788078,39.06913,50.7,926,1106,16532,-20,4,1,-178.06,-3.33,0.69,16527.199036739406,0.002802
162,1900-01-01 19:34:18.500,21.788088,39.069118,50.96,1374,244,15920,14,-6,-2,-178.06,-3.37,0.52,16590.79371217664,0.001665
163,1900-01-01 19:34:18.700,21.788109,39.069103,51.24,1598,140,16376,-3,-19,-1,-178.04,-3.32,0.48,16579.624844971615,0.002802
164,1900-01-01 19:34:18.800,21.78812,39.069092,51.58,584,-982,16554,-26,-15,9,-178.07,-3.1,0.26,16454.3787485277,0.001669
165,1900-01-01 19:34:19.000,21.788141,39.069073,52.38,1770,-664,16522,-24,35,24,-178.26,-3.05,-0.28,16467.175714129,0.00305
166,1900-01-01 19:34:19.200,21.78816,39.069054,52.56,1644,1354,13234,6,-18,18,-178.47,-3.49,-0.41,16527.672794437818,0.002883
167,1900-01-01 19:34:19.300,21.788172,39.069046,52.74,370,-866,15188,6,-34,14,-178.6,-3.06,-0.49,16435.121052185772,0.001569
168,1900-01-01 19:34:19.500,21.788193,39.069027,53.05,458,-258,16504,3,13,11,-178.74,-3.09,-0.36,15208.665030172766,0.00305
169,1900-01-01 19:34:19.700,21.788214,39.069008,53.27,748,-262,16416,-1,-4,3,-178.81,-3.12,-0.24,16424.477586821446,0.00305
170,1900-01-01 19:34:19.800,21.788225,39.069,53.4,1546,-662,13508,-2,24,2,-178.86,-3.24,-0.16,16522.956273016036,0.001476
171,1900-01-01 19:34:20.000,21.788246,39.068981,53.91,312,-34,16988,15,20,7,-178.89,-3.04,-0.07,16644.695251040193,0.00305
172,1900-01-01 19:34:20.200,21.788267,39.068962,54.13,1348,-250,17118,-9,10,3,-178.95,-3.13,0.09,16680.59159622344,0.00305
173,1900-01-01 19:34:20.300,21.788279,39.068951,54.35,8,100,16626,-14,-18,5,-179.02,-3.13,0.03,16990.898857918022,0.001752
174,1900-01-01 19:34:20.500,21.7883,39.068932,54.69,1648,142,16136,-19,10,9,-179.11,-3.01,-0.17,16674.745815154125,0.00305
175,1900-01-01 19:34:20.600,21.788311,39.068924,54.77,220,-224,17316,-21,-6,6,-179.2,-2.89,-0.31,16173.32050013231,0.001476
176,1900-01-01 19:34:20.800,21.788334,39.068905,55.08,1274,-14,16084,-24,1,7,-179.27,-2.82,-0.32,16121.44087853192,0.003223
177,1900-01-01 19:34:20.900,21.788345,39.068893,55.29,1098,-124,15648,-21,0,5,-179.34,-2.82,-0.37,16120.294910453717,0.001741
178,1900-01-01 19:34:21.100,21.788366,39.068874,55.59,1074,1882,15490,-10,-49,5,-179.38,-2.63,-0.47,16121.911673247685,0.00305
179,1900-01-01 19:34:21.200,21.788378,39.068863,55.69,842,-1028,16790,-6,30,4,-179.43,-2.33,-0.79,16611.2199431589,0.001752
180,1900-01-01 19:34:21.400,21.788401,39.068844,56.07,1892,-1284,16582,-4,13,9,-179.51,-2.63,-0.97,16610.796127820002,0.003223
181,1900-01-01 19:34:21.500,21.788412,39.068832,56.42,1034,116,16576,22,-41,3,-179.56,-2.52,-0.93,16634.88731551855,0.001741
182,1900-01-01 19:34:21.700,21.788433,39.068813,56.76,1398,-36,12322,-26,73,8,-179.61,-2.43,-0.54,15995.251045232144,0.00305
183,1900-01-01 19:34:21.800,21.788445,39.068806,57.14,2074,962,15934,13,-46,8,-179.68,-2.54,-0.53,15967.554853514674,0.001518
184,1900-01-01 19:34:22.000,21.788467,39.068783,57.52,814,-620,15904,9,36,10,-179.76,-2.24,-0.44,15927.038896166481,0.003409
185,1900-01-01 19:34:22.100,21.788479,39.068771,57.71,60,-540,16566,14,2,8,-179.85,-2.53,-0.37,15906.337479130763,0.001821
186,1900-01-01 19:34:22.300,21.788502,39.068752,57.7,-254,-266,14956,-8,3,8,-179.94,-2.51,-0.37,15906.337479130763,0.003223
187,1900-01-01 19:34:22.400,21.788513,39.068741,57.84,56,400,14120,-36,-17,10,179.98,-2.29,-0.41,16206.279893917666,0.001669
188,1900-01-01 19:34:22.600,21.788534,39.068722,58.02,694,50,16734,-30,16,11,179.86,-2.24,-0.59,16204.886670384338,0.00305
189,1900-01-01 19:34:22.700,21.788546,39.06871,58.17,-78,-1372,16204,-1,-12,8,179.77,-2.33,-0.77,16387.604339866153,0.001821
190,1900-01-01 19:34:22.900,21.788568,39.068687,58.35,610,-160,16376,6,27,17,179.66,-2.21,-0.76,16679.401188292104,0.003409
191,1900-01-01 19:34:23.000,21.78858,39.06868,58.52,1324,-90,16668,-4,-29,8,179.51,-2.35,-0.66,16387.19109548674,0.001518
192,1900-01-01 19:34:23.200,21.788603,39.068657,58.62,336,428,17374,-3,-2,3,179.45,-2.09,-0.58,16678.470553381085,0.00349
193,1900-01-01 19:34:23.400,21.788624,39.068634,58.87,584,-460,15798,-6,22,2,179.39,-2.37,-0.5,16672.68376716838,0.00333
194,1900-01-01 19:34:23.600,21.788647,39.068615,59.01,296,242,17022,-4,-14,-1,179.41,-2.16,-0.46,15803.425704574309,0.003223
195,1900-01-01 19:34:23.700,21.788658,39.068604,59.0,-316,208,15682,-5,-15,-1,179.4,-2.09,-0.42,15802.14175357252,0.001669
196,1900-01-01 19:34:23.900,21.788679,39.068581,59.06,550,866,15500,-3,-4,-1,179.4,-2.17,-0.35,16473.220328763895,0.00333
197,1900-01-01 19:34:24.000,21.788691,39.068569,59.11,-26,-322,16554,5,23,-3,179.44,-1.91,-0.17,16471.60490055538,0.001821
198,1900-01-01 19:34:24.200,21.788713,39.06855,59.17,218,1232,16470,16,-10,-2,179.47,-2.04,-0.05,16494.192311234885,0.003136
199,1900-01-01 19:34:24.400,21.788736,39.068527,59.1,98,84,19558,23,6,0,179.51,-2.02,0.16,16513.941988513827,0.00349
200,1900-01-01 19:34:24.500,21.788748,39.068516,59.27,728,1944,10876,46,94,-17,179.59,-2.17,0.48,16513.941988513827,0.001752
201,1900-01-01 19:34:24.700,21.788769,39.068493,59.63,558,1184,15654,-17,31,-5,179.64,-1.69,0.58,15665.49660878965,0.00333
202,1900-01-01 19:34:24.900,21.788792,39.068474,59.7,-238,592,17988,-15,50,-6,179.73,-1.88,0.69,15698.03287039494,0.003223
203,1900-01-01 19:34:25.000,21.788803,39.068462,59.78,-254,176,13992,14,-8,-11,179.84,-2.07,0.77,17655.14021467969,0.001741
204,1900-01-01 19:34:25.200,21.788826,39.068439,59.92,2166,1034,19086,9,-42,-22,179.95,-2.02,1.12,17635.605121458124,0.00349
205,1900-01-01 19:34:25.400,21.788849,39.06842,60.3,1318,1178,17616,8,-1,-22,-179.81,-2.07,1.49,16285.232819950717,0.003223
206,1900-01-01 19:34:25.500,21.78886,39.068409,60.37,-94,826,16264,-22,-7,-25,-179.66,-2.03,1.62,16939.650291549704,0.001669
207,1900-01-01 19:34:25.700,21.788885,39.068386,60.72,-186,628,15362,0,20,-19,-179.42,-1.82,1.52,16668.865588275647,0.003656
208,1900-01-01 19:34:25.800,21.788897,39.068375,60.91,1240,784,16874,-33,-14,-19,-179.27,-1.82,1.57,16668.865588275647,0.001752
209,1900-01-01 19:34:26.000,21.788921,39.068352,61.11,118,298,16650,-14,-3,-13,-179.1,-1.7,1.49,16892.615428050212,0.003572
210,1900-01-01 19:34:26.100,21.788933,39.068344,60.98,398,1124,17736,13,-13,-15,-178.99,-1.59,1.39,16896.891311717667,0.001569
211,1900-01-01 19:34:26.300,21.788956,39.068321,61.01,-338,784,18574,21,30,-12,-178.87,-1.38,1.36,16668.865588275647,0.00349
212,1900-01-01 19:34:26.400,21.788967,39.06831,61.06,670,1202,15462,-3,44,-9,-178.78,-1.57,1.38,17297.082875444634,0.001669
213,1900-01-01 19:34:26.600,21.788992,39.068291,61.29,-184,138,15888,-15,-16,-13,-178.68,-1.5,1.38,17279.7408545383,0.003402
214,1900-01-01 19:34:26.800,21.789015,39.068268,61.6,338,-514,17276,9,27,-6,-178.59,-1.43,1.21,15892.067581029223,0.00349
215,1900-01-01 19:34:26.900,21.789028,39.068256,61.68,332,-334,17948,-15,9,-7,-178.54,-1.6,1.23,15889.219615827582,0.001904
216,1900-01-01 19:34:27.100,21.789051,39.068233,61.75,-516,700,15176,-11,-11,-7,-178.46,-1.63,1.2,15179.792488700232,0.00349
217,1900-01-01 19:34:27.200,21.789064,39.068226,61.85,-518,-70,14570,-2,-6,-10,-178.4,-1.48,1.13,15185.571046226743,0.001616
218,1900-01-01 19:34:27.400,21.789087,39.068203,62.09,1318,838,14998,6,-2,-4,-178.32,-1.2,1.14,15185.571046226743,0.00349
219,1900-01-01 19:34:27.500,21.789101,39.068192,62.35,-892,156,15994,-9,16,-6,-178.26,-0.84,1.18,16004.631079784376,0.001927
220,1900-01-01 19:34:27.600,21.789112,39.06818,62.46,562,-556,16326,-20,7,-8,-178.21,-1.09,1.05,16113.592026609089,0.001741
221,1900-01-01 19:34:27.800,21.789137,39.068161,62.53,1120,240,16592,9,-18,-12,-178.16,-1.23,0.98,16112.974275409242,0.003402
222,1900-01-01 19:34:28.000,21.78916,39.068138,62.5,-706,946,16102,22,18,-6,-178.08,-0.98,1.03,16338.5573414546,0.00349
223,1900-01-01 19:34:28.100,21.789173,39.068127,62.53,544,338,13922,3,25,-6,-178.02,-1.15,1.18,16577.518873462337,0.001838
224,1900-01-01 19:34:28.300,21.789198,39.068104,62.58,218,462,16564,6,8,-5,-177.96,-0.95,1.34,16108.197540382971,0.003656
225,1900-01-01 19:34:28.400,21.789209,39.068092,62.61,1100,390,18762,0,-7,-5,-177.9,-0.98,1.39,16508.04737090368,0.001741
226,1900-01-01 19:34:28.600,21.789234,39.068073,62.67,30,-52,15948,-31,-1,-10,-177.85,-1.02,1.31,16570.024743493897,0.003402
227,1900-01-01 19:34:28.700,21.789246,39.068062,62.74,-234,542,16502,-19,-39,-7,-177.77,-0.93,1.11,17260.432671286082,0.001752
228,1900-01-01 19:34:28.900,21.78927,39.068039,62.83,744,-648,17256,-1,-30,-11,-177.69,-0.75,1.04,17259.698490993404,0.003572
229,1900-01-01 19:34:29.000,21.789282,39.068027,62.89,-778,1286,17510,14,-7,-7,-177.62,-0.5,1.07,17259.698490993404,0.001821
230,1900-01-01 19:34:29.200,21.789307,39.068008,62.9,-486,270,19780,3,0,-8,-177.58,-0.54,1.15,17272.387327755245,0.003402
231,1900-01-01 19:34:29.300,21.789318,39.067997,62.92,382,-996,14746,-36,-5,2,-177.57,-0.69,1.01,15453.045913346663,0.001669
232,1900-01-01 19:34:29.500,21.789343,39.067974,63.0,640,-778,15448,3,14,2,-177.61,-0.61,0.71,15454.943286858092,0.003656
233,1900-01-01 19:34:29.600,21.789356,39.067963,63.01,1580,100,15418,33,3,2,-177.66,-0.54,0.69,15472.29498167612,0.001838
234,1900-01-01 19:34:29.800,21.789381,39.067944,62.99,-754,-262,18906,24,-9,3,-177.7,-0.43,0.8,15460.51241065444,0.003402
235,1900-01-01 19:34:30.000,21.789404,39.067921,62.74,-564,-890,17556,-12,-17,0,-177.74,-0.14,0.67,15438.649034160988,0.00349
236,1900-01-01 19:34:30.200,21.789429,39.067902,62.6,-930,838,13974,9,3,6,-177.78,-0.08,0.46,17120.618096318834,0.003402
237,1900-01-01 19:34:30.400,21.789454,39.067879,62.4,-2774,-1906,15260,3,8,6,-177.83,0.42,0.35,17127.776504847323,0.003656
238,1900-01-01 19:34:30.500,21.789465,39.067867,62.16,-436,292,17102,-13,-39,1,-177.84,0.78,0.36,16734.383406627207,0.001741
239,1900-01-01 19:34:30.700,21.78949,39.067848,62.03,-1018,132,18844,-11,-25,2,-177.86,1.6,0.24,17094.74609346392,0.003402
240,1900-01-01 19:34:30.900,21.789515,39.067825,61.98,-162,-750,16708,-6,17,-1,-177.87,1.84,0.05,17070.079554589076,0.003656
241,1900-01-01 19:34:31.100,21.789539,39.067806,61.75,-2782,-118,17064,30,-15,4,-177.91,2.6,-0.11,16739.399989246926,0.003312
242,1900-01-01 19:34:31.200,21.789551,39.067795,61.62,66,346,16540,-12,11,4,-177.94,2.69,0.01,16668.94957698295,0.001752
243,1900-01-01 19:34:31.400,21.789576,39.067776,61.6,-2066,-214,15360,-12,-15,3,-177.97,2.9,-0.05,15994.432781439922,0.003402
244,1900-01-01 19:34:31.600,21.789598,39.067753,61.12,-2530,232,14542,-8,24,4,-177.99,3.27,-0.08,15978.92512029517,0.003409
245,1900-01-01 19:34:31.800,21.789623,39.067734,60.66,-1932,-458,15860,-3,3,1,-178.02,3.32,-0.08,15978.92512029517,0.003402
246,1900-01-01 19:34:32.000,21.789646,39.067711,60.28,-326,380,17666,-11,18,2,-178.05,3.62,-0.08,16102.826584174592,0.00349
247,1900-01-01 19:34:32.100,21.789658,39.067703,59.93,-282,736,17802,1,-39,-4,-178.05,3.73,-0.01,16048.10817510899,0.001569
248,1900-01-01 19:34:32.300,21.78968,39.06768,59.81,-1628,372,16016,25,32,-3,-178.04,3.85,0.01,16877.044765005514,0.003409
249,1900-01-01 19:34:32.400,21.789694,39.067673,59.56,-944,-224,15606,5,-1,-1,-178.05,3.71,0.18,16037.959471204558,0.001716
250,1900-01-01 19:34:32.600,21.789717,39.067654,59.22,-752,888,16856,-6,29,0,-178.07,3.83,0.32,15850.265486735545,0.003223
251,1900-01-01 19:34:32.700,21.789728,39.067642,58.87,-714,64,14320,-11,31,0,-178.08,3.63,0.37,15850.142459927607,0.001741
252,1900-01-01 19:34:32.900,21.789751,39.067623,57.43,-1618,14,15822,-2,-22,0,-178.07,3.78,0.28,15839.990025249384,0.003223
253,1900-01-01 19:34:33.000,21.789761,39.067612,56.43,-982,-118,18380,17,19,-2,-178.05,3.84,0.28,15852.574049661462,0.001589
254,1900-01-01 19:34:33.200,21.789783,39.067593,56.0,-528,186,14910,-43,28,-1,-178.03,3.64,0.31,17213.489942484062,0.003136
255,1900-01-01 19:34:33.300,21.789795,39.067585,55.95,-1306,504,17174,-9,7,-10,-177.98,3.49,0.26,17229.45327049004,0.001569
256,1900-01-01 19:34:33.500,21.789816,39.067566,55.74,-1154,162,17190,-10,-20,-10,-177.9,3.72,0.23,17240.301041455165,0.00305
257,1900-01-01 19:34:33.600,21.789827,39.067558,55.65,-2670,-258,17894,11,-12,-11,-177.82,3.64,0.16,17276.460169838032,0.001476
258,1900-01-01 19:34:33.800,21.789848,39.067539,55.46,-1726,-188,17662,-10,-33,-10,-177.73,3.78,0.17,17276.460169838032,0.00305
259,1900-01-01 19:34:33.900,21.78986,39.067528,55.27,-1736,-30,14676,1,12,-9,-177.66,3.92,0.18,15960.719031422112,0.001752
260,1900-01-01 19:34:34.100,21.789881,39.067509,55.05,-826,818,14946,-1,18,-8,-177.6,3.85,0.3,15959.634456966738,0.00305
261,1900-01-01 19:34:34.200,21.789892,39.067501,54.65,-1838,170,15866,-4,-18,-9,-177.55,3.85,0.43,15888.354855050286,0.001476
262,1900-01-01 19:34:34.400,21.789913,39.067482,54.25,-608,-284,16528,10,5,-7,-177.5,3.88,0.46,15888.396143097641,0.00305
263,1900-01-01 19:34:34.500,21.789925,39.067474,54.04,-842,-150,15974,4,29,-6,-177.46,3.86,0.6,15996.879070618743,0.001569
264,1900-01-01 19:34:34.600,21.789934,39.067463,53.8,-652,266,14908,18,-16,-2,-177.42,3.71,0.55,15996.879070618743,0.001514
265,1900-01-01 19:34:34.800,21.789957,39.067444,53.59,-866,-352,17468,18,-3,2,-177.41,3.87,0.58,15999.257232759275,0.003223
266,1900-01-01 19:34:34.900,21.789967,39.067436,53.2,-1058,240,15928,-8,-2,-1,-177.41,3.81,0.62,17041.710008094844,0.001385
267,1900-01-01 19:34:35.100,21.789988,39.067417,52.68,-1594,944,18790,19,-9,0,-177.41,3.73,0.61,17052.544912710244,0.00305
268,1900-01-01 19:34:35.200,21.789997,39.06741,52.55,-426,-188,17018,-28,-4,0,-177.39,3.72,0.57,17005.950370385068,0.001234
269,1900-01-01 19:34:35.300,21.790009,39.067402,52.33,-1722,1044,15952,-6,-25,1,-177.36,3.92,0.46,17013.2002868361,0.001569
270,1900-01-01 19:34:35.500,21.79003,39.067383,51.96,-1498,250,16938,-2,20,-2,-177.36,3.97,0.35,16995.314883814302,0.00305
271,1900-01-01 19:34:35.600,21.790039,39.067375,51.62,-1372,556,15230,21,-34,-3,-177.35,3.86,0.36,16024.356586147227,0.001298
272,1900-01-01 19:34:35.800,21.790058,39.067356,51.27,-966,-146,17306,3,-37,-1,-177.32,4.11,0.39,16560.006038646243,0.002883
273,1900-01-01 19:34:35.900,21.79007,39.067348,50.82,-2250,264,15488,2,16,1,-177.32,4.13,0.54,15588.340386327212,0.001569
274,1900-01-01 19:34:36.100,21.790089,39.067333,49.81,-1752,366,16490,-1,21,-2,-177.33,3.98,0.54,16584.279061810314,0.00262
275,1900-01-01 19:34:36.200,21.790098,39.067326,49.08,-1746,-242,13380,-31,-9,-6,-177.29,3.96,0.44,16252.862394052316,0.001234
276,1900-01-01 19:34:36.300,21.790108,39.067318,48.44,-1688,264,17306,-26,-16,-2,-177.28,4.09,0.41,16584.911817673317,0.001385
277,1900-01-01 19:34:36.500,21.790127,39.067303,48.16,-2032,-70,16156,-10,-22,-5,-177.24,4.3,0.26,16976.057728459808,0.00262
278,1900-01-01 19:34:36.600,21.790136,39.067295,47.64,-2790,700,16854,-2,-25,-5,-177.22,4.86,0.15,16978.104605638404,0.001298
279,1900-01-01 19:34:36.800,21.790155,39.06728,47.1,-3318,-14,18226,19,14,-1,-177.22,5.44,0.08,17083.372383695205,0.00262
280,1900-01-01 19:34:36.900,21.790165,39.067272,46.69,-1980,612,16658,-5,-10,-3,-177.24,5.9,0.22,17168.29647926666,0.001385
281,1900-01-01 19:34:37.000,21.790173,39.067265,46.28,-2946,-20,17000,-16,15,0,-177.22,6.3,0.17,17194.263927252017,0.001146
282,1900-01-01 19:34:37.200,21.790192,39.067249,45.8,-2216,52,16940,-38,-11,4,-177.18,6.64,-0.04,16871.58380235833,0.002682
283,1900-01-01 19:34:37.300,21.790201,39.067242,45.28,-3424,-298,16228,-18,-22,2,-177.17,7.01,-0.27,17176.75650406677,0.001234
284,1900-01-01 19:34:37.500,21.790218,39.067226,44.52,-2676,-398,16052,8,5,4,-177.18,7.33,-0.48,16477.674350465844,0.00251
285,1900-01-01 19:34:37.600,21.790228,39.067219,43.52,-2842,18,17418,2,-43,1,-177.19,7.64,-0.5,16469.79562714729,0.001326
286,1900-01-01 19:34:37.700,21.790236,39.067215,42.9,-3554,-564,15666,-9,-5,-3,-177.18,8.12,-0.57,16455.63222729531,0.000981
287,1900-01-01 19:34:37.900,21.790253,39.0672,42.05,-2208,-66,16220,-27,8,3,-177.18,8.17,-0.66,17378.946113041493,0.002444
288,1900-01-01 19:34:38.000,21.790262,39.067192,41.95,-2774,108,17156,1,-23,5,-177.19,8.14,-0.81,16465.16237393364,0.001298
289,1900-01-01 19:34:38.200,21.790277,39.067181,41.28,-2704,-792,17416,6,-12,3,-177.2,8.43,-0.87,16449.10550759524,0.002018
290,1900-01-01 19:34:38.300,21.790287,39.067173,40.92,-3110,-1502,15154,5,18,4,-177.22,8.55,-0.89,16251.030982679222,0.001385
291,1900-01-01 19:34:38.500,21.790302,39.067162,39.89,-2674,-416,15428,-6,10,1,-177.26,8.55,-0.75,16261.830401280171,0.002018
292,1900-01-01 19:34:38.600,21.79031,39.067154,39.64,-2734,464,16014,2,-22,1,-177.28,8.62,-0.73,15904.277915076811,0.001214
293,1900-01-01 19:34:38.800,21.790325,39.067142,38.89,-2888,-724,16326,-16,-14,3,-177.27,8.79,-0.75,16242.622817759451,0.002078
294,1900-01-01 19:34:38.900,21.790333,39.067135,38.52,-2694,100,15662,-5,17,5,-177.28,8.87,-0.82,16242.622817759451,0.001146
295,1900-01-01 19:34:39.000,21.79034,39.067127,38.18,-2346,-342,16762,-21,27,-1,-177.31,8.71,-0.77,16518.936890732406,0.001135
296,1900-01-01 19:34:39.200,21.790356,39.067116,37.11,-2130,-582,14912,4,-3,1,-177.34,8.55,-0.77,16925.5128135014,0.002111
297,1900-01-01 19:34:39.400,21.790371,39.067104,35.52,-2494,-68,16846,1,-4,0,-177.36,8.66,-0.64,16926.60556638572,0.002078
298,1900-01-01 19:34:39.500,21.790377,39.067101,34.55,-2272,0,17380,-3,-16,-6,-177.32,8.8,-0.62,16629.32794793584,0.000736
299,1900-01-01 19:34:39.700,21.79039,39.067089,33.84,-2386,-204,16456,-22,-21,3,-177.32,8.8,-0.57,17014.2686002073,0.001904
300,1900-01-01 19:34:39.900,21.790403,39.067081,32.98,-3288,-564,15826,-14,25,3,-177.31,8.61,-0.62,16837.16626989233,0.001665
301,1900-01-01 19:34:40.000,21.790409,39.067074,32.23,-2300,24,17284,-1,-5,0,-177.28,8.58,-0.67,16629.352603153256,0.000984
302,1900-01-01 19:34:40.200,21.790422,39.067066,31.28,-2768,-890,16666,-20,-10,-4,-177.29,8.53,-0.63,16825.218928739087,0.001665
303,1900-01-01 19:34:40.400,21.790434,39.067055,30.31,-2050,-206,15822,0,-5,4,-177.3,8.47,-0.67,16825.218928739087,0.001752
304,1900-01-01 19:34:40.600,21.790445,39.067047,28.43,-2200,-94,17320,4,-12,2,-177.31,8.42,-0.58,16063.27724967729,0.001476
305,1900-01-01 19:34:40.800,21.790455,39.067039,26.01,-2766,-430,15096,4,-7,-5,-177.32,8.34,-0.56,15974.495923189565,0.001385
306,1900-01-01 19:34:40.900,21.790459,39.067036,25.32,-2818,-46,14962,0,-11,3,-177.32,8.43,-0.46,16721.373508178087,0.000542
307,1900-01-01 19:34:41.100,21.790468,39.067028,23.61,-2016,16,16842,-8,-18,-3,-177.34,8.46,-0.34,16782.449165720718,0.001298
308,1900-01-01 19:34:41.300,21.790476,39.06702,22.67,-2386,-312,16550,6,-2,1,-177.36,8.48,-0.36,16721.172566539703,0.001214
309,1900-01-01 19:34:41.400,21.79048,39.067017,21.96,-2898,-416,16876,19,0,-3,-177.34,8.47,-0.38,16705.159203072566,0.000542
310,1900-01-01 19:34:41.600,21.790489,39.067013,21.49,-2076,268,16526,19,6,4,-177.37,8.39,-0.27,16681.38243671669,0.001083
311,1900-01-01 19:34:41.800,21.790497,39.067005,20.78,-2250,-316,15912,9,4,-1,-177.39,8.38,-0.09,16664.987368732087,0.001214
312,1900-01-01 19:34:42.000,21.790504,39.066998,18.78,-2142,-158,15970,3,-10,5,-177.46,8.21,-0.0,16658.0393804313,0.001062
313,1900-01-01 19:34:42.100,21.790508,39.066998,17.61,-2020,674,17074,7,2,-3,-177.48,8.13,0.09,16664.89015865391,0.000445
314,1900-01-01 19:34:42.300,21.790514,39.06699,17.03,-2002,526,16734,-8,12,2,-177.47,8.04,0.18,16668.860668923957,0.001062
315,1900-01-01 19:34:42.500,21.79052,39.066986,16.07,-1640,20,16542,4,11,-1,-177.48,7.89,0.16,16667.85301111094,0.000785
316,1900-01-01 19:34:42.600,21.790524,39.066982,15.93,-2200,10,16546,17,-17,-1,-177.47,7.86,0.19,16624.27646545858,0.000607
317,1900-01-01 19:34:42.800,21.790529,39.066978,14.93,-1618,198,16540,16,-28,1,-177.51,7.64,0.3,16618.962783519313,0.000693
318,1900-01-01 19:34:43.000,21.790535,39.066975,13.39,-1330,446,15770,-5,14,4,-177.55,7.1,0.5,16594.56850900318,0.000736
319,1900-01-01 19:34:43.200,21.790541,39.066971,12.84,-920,-390,16108,2,7,2,-177.54,6.51,0.46,16213.20794907658,0.000785
320,1900-01-01 19:34:43.400,21.790546,39.066963,12.85,-40,316,16832,6,-4,2,-177.56,5.82,0.5,16112.520473222059,0.000996
321,1900-01-01 19:34:43.500,21.790548,39.066963,12.35,-214,592,16184,-1,3,0,-177.57,5.31,0.58,16188.499251011503,0.000222
322,1900-01-01 19:34:43.700,21.790554,39.066959,12.29,-138,-222,15764,13,12,0,-177.56,4.73,0.61,16836.326083798685,0.000785
323,1900-01-01 19:34:43.900,21.790558,39.066956,12.25,-376,372,16902,-4,-9,3,-177.57,4.31,0.65,16188.084753916999,0.000542
324,1900-01-01 19:34:44.000,21.790562,39.066952,12.27,-1038,294,19688,-2,155,7,-177.61,4.2,0.64,15767.345242620902,0.000607
325,1900-01-01 19:34:44.200,21.790565,39.066948,12.01,478,58,14520,31,115,8,-177.73,1.94,0.83,15378.292883151888,0.000531
326,1900-01-01 19:34:44.400,21.790571,39.066944,12.02,422,374,14452,20,-5,3,-177.8,0.87,1.14,15379.97997397916,0.000785
327,1900-01-01 19:34:44.500,21.790573,39.066944,11.92,1006,824,15368,12,-31,3,-177.8,0.61,1.29,15381.478342474107,0.000222
328,1900-01-01 19:34:44.700,21.790579,39.06694,11.71,5238,1774,17062,-26,-110,-2,-177.78,0.67,1.29,15467.403401993497,0.000785
329,1900-01-01 19:34:44.900,21.790583,39.066936,11.54,524,200,15454,-40,-333,-23,-177.55,2.9,0.99,15499.19468875722,0.000607
330,1900-01-01 19:34:45.100,21.790588,39.066933,11.59,-2110,-232,22198,13,-53,-2,-177.37,5.98,0.67,15669.38696950203,0.000636
331,1900-01-01 19:34:45.200,21.79059,39.066929,11.57,1262,622,13670,4,74,0,-177.42,4.75,1.05,15664.20084140905,0.000469
332,1900-01-01 19:34:45.400,21.790594,39.066925,11.52,1902,450,15612,-10,87,4,-177.42,2.78,1.23,17022.792837839508,0.000607
333,1900-01-01 19:34:45.600,21.7906,39.066921,11.24,1356,-76,16968,-18,204,13,-177.53,-0.64,1.03,15677.237639329194,0.000785
334,1900-01-01 19:34:45.800,21.790604,39.066917,11.29,3054,154,18572,32,-52,0,-177.49,-2.79,0.81,17076.53102945677,0.000607
335,1900-01-01 19:34:46.100,21.790611,39.06691,11.76,404,750,15008,-6,29,-1,-177.5,-2.54,1.23,17185.834864794902,0.001062
336,1900-01-01 19:34:46.300,21.790617,39.066906,12.51,2326,278,17130,0,12,-4,-177.48,-3.54,1.14,17166.011767443248,0.000785
337,1900-01-01 19:34:46.500,21.790621,39.066902,12.82,770,296,17548,22,34,2,-177.45,-3.66,1.15,17166.011767443248,0.000607
338,1900-01-01 19:34:46.700,21.790627,39.066898,13.13,1076,-340,15858,-47,-104,-1,-177.48,-4.12,1.43,17165.38295523872,0.000785
339,1900-01-01 19:34:46.900,21.790632,39.066891,13.47,2444,-866,18498,12,-57,15,-177.59,-3.83,0.61,15898.098628452397,0.000912
340,1900-01-01 19:34:47.200,21.790642,39.066887,14.03,538,236,15250,36,24,51,-177.96,-3.39,0.4,15894.911638634547,0.001186
341,1900-01-01 19:34:47.400,21.790648,39.066879,14.76,2568,-1362,15682,-55,30,96,-178.89,-4.62,-0.08,15929.636028484769,0.001062
342,1900-01-01 19:34:47.600,21.790653,39.066875,15.2,2650,-2146,15662,-19,-33,134,179.7,-4.79,-1.39,15777.195948583512,0.000693
343,1900-01-01 19:34:47.800,21.790661,39.066868,16.49,992,-2584,16972,-2,-21,186,177.55,-4.56,-2.38,15975.127041748368,0.001146
344,1900-01-01 19:34:47.900,21.790665,39.066864,17.64,898,-1418,16664,5,124,219,175.34,-4.77,-2.8,16908.536187381804,0.000607
345,1900-01-01 19:34:48.100,21.790672,39.066856,18.44,2162,-2910,14734,-32,85,251,173.0,-6.21,-3.54,16945.23708892856,0.001135
346,1900-01-01 19:34:48.300,21.79068,39.066849,19.28,1238,-3622,16788,17,-149,260,168.91,-6.46,-5.1,16993.223355208393,0.001146
347,1900-01-01 19:34:48.500,21.790688,39.066841,19.81,844,-3090,13964,-67,-5,308,165.63,-5.35,-5.71,17024.028312946382,0.001214
348,1900-01-01 19:34:48.700,21.790695,39.066833,19.87,1980,-4198,17088,-22,32,322,161.94,-5.98,-7.06,17024.028312946382,0.001135
349,1900-01-01 19:34:49.000,21.790707,39.066818,20.49,2170,-5020,16516,6,-22,328,157.84,-6.57,-8.14,17142.737821013307,0.002044
350,1900-01-01 19:34:49.200,21.790714,39.066811,21.06,2352,-3008,16382,-46,-44,319,153.61,-6.81,-8.48,17448.14374081094,0.001062
351,1900-01-01 19:34:49.400,21.79072,39.066803,21.41,2588,-4048,16912,-13,-14,311,148.43,-7.31,-9.4,17397.91815131914,0.001062
352,1900-01-01 19:34:49.600,21.790728,39.066792,21.79,1694,-5508,16796,19,-29,325,144.44,-7.76,-10.14,17683.805472804772,0.001443
353,1900-01-01 19:34:49.900,21.790737,39.066776,22.41,1674,-5092,16044,-72,3,352,140.52,-8.06,-10.75,17713.445401728033,0.001931
354,1900-01-01 19:34:50.100,21.790743,39.066765,22.75,2164,-5194,16980,-56,-37,347,136.21,-8.56,-12.08,17197.982207224195,0.001317
355,1900-01-01 19:34:50.300,21.790749,39.066753,23.12,2436,-6496,16152,-61,-90,352,132.53,-8.53,-13.28,17104.023970984137,0.001407
356,1900-01-01 19:34:50.500,21.790754,39.066742,23.26,2132,-6266,16062,15,-14,364,128.22,-8.36,-14.39,17136.68649418551,0.001265
357,1900-01-01 19:34:50.600,21.790756,39.066738,23.53,2368,-4566,17350,-25,8,341,125.36,-8.72,-14.47,17354.050593449356,0.000469
358,1900-01-01 19:34:50.800,21.790762,39.066723,23.9,2496,-5160,16158,40,16,328,121.58,-9.21,-14.8,17239.542105288063,0.001686
359,1900-01-01 19:34:51.000,21.790766,39.066711,24.6,1666,-5888,15850,-8,-40,337,118.07,-9.6,-15.12,17200.215114933882,0.001316
360,1900-01-01 19:34:51.200,21.79077,39.066696,25.31,1750,-7310,13346,-48,-63,334,114.42,-9.7,-15.75,17191.87180035961,0.001611
361,1900-01-01 19:34:51.400,21.790773,39.066681,25.91,1648,-6218,16066,-26,-23,321,110.42,-9.89,-16.43,16988.435713743627,0.001584
362,1900-01-01 19:34:51.600,21.790775,39.066666,26.47,1576,-5712,17118,12,-36,287,106.67,-9.96,-16.52,16795.359835383104,0.001565
363,1900-01-01 19:34:51.800,21.790777,39.06665,27.52,1402,-3936,14900,35,19,231,102.39,-9.69,-15.44,16623.006827887668,0.001667
364,1900-01-01 19:34:52.000,21.790777,39.066631,28.35,1772,-2202,15708,38,-32,168,99.96,-9.66,-14.06,16622.840431165787,0.001962
365,1900-01-01 19:34:52.200,21.790775,39.066612,29.44,2022,-340,16384,26,-39,95,98.08,-9.42,-12.12,16483.434229553015,0.001974
366,1900-01-01 19:34:52.500,21.79077,39.066582,31.52,1742,-358,17092,-13,18,42,96.96,-8.86,-10.28,16483.434229553015,0.003147
367,1900-01-01 19:34:52.700,21.790764,39.066559,34.07,2528,330,18464,0,42,12,96.44,-8.76,-8.64,16503.137762256,0.002467
368,1900-01-01 19:34:52.900,21.790756,39.066532,35.83,1382,-426,15680,9,-49,6,96.07,-8.46,-7.31,17181.03396190113,0.002926
369,1900-01-01 19:34:53.100,21.790751,39.066513,36.99,1950,-130,15316,-13,-18,10,95.75,-8.01,-6.11,16123.217917028845,0.002039
370,1900-01-01 19:34:53.300,21.790743,39.06649,38.16,1614,-86,18000,13,-31,11,95.46,-7.69,-5.11,16123.217917028845,0.002536
371,1900-01-01 19:34:53.500,21.790733,39.066467,39.11,1032,10,16042,-12,-7,12,95.22,-7.45,-4.35,16668.54798715233,0.002622
372,1900-01-01 19:34:53.700,21.790726,39.066444,39.95,2024,314,18416,-15,17,9,95.04,-7.28,-3.96,16666.814692675984,0.002499
373,1900-01-01 19:34:53.900,21.790716,39.066422,40.25,1596,-116,16590,-7,1,12,94.87,-7.22,-3.64,16666.68689332106,0.002529
374,1900-01-01 19:34:54.100,21.790709,39.066402,40.41,954,-136,14666,-4,-20,11,94.68,-7.06,-3.26,16666.99649006983,0.002207
375,1900-01-01 19:34:54.300,21.790697,39.06638,40.59,1670,-56,16804,4,14,11,94.51,-6.81,-2.82,16666.99649006983,0.002634
376,1900-01-01 19:34:54.500,21.790688,39.06636,40.9,1580,-206,16570,17,32,10,94.35,-6.62,-2.36,16651.844942828408,0.002295
377,1900-01-01 19:34:54.700,21.790674,39.066338,41.28,2018,96,18702,24,16,10,94.18,-6.51,-1.9,16886.83155597876,0.002754
378,1900-01-01 19:34:54.900,21.790663,39.066319,41.75,1648,-42,14898,-8,0,12,94.04,-6.21,-1.51,16727.60042564384,0.002312
379,1900-01-01 19:34:55.100,21.790649,39.066296,42.39,1768,854,17568,1,29,7,93.92,-5.83,-1.15,16735.313202925125,0.00284
380,1900-01-01 19:34:55.300,21.790634,39.066277,43.06,1378,86,16646,1,24,11,93.78,-5.64,-0.91,16076.920227456501,0.002575
381,1900-01-01 19:34:55.500,21.790619,39.066254,43.87,1724,444,15992,-8,15,9,93.65,-5.53,-0.72,16260.185730796558,0.002902
382,1900-01-01 19:34:55.700,21.790604,39.066231,44.59,476,-706,15720,-6,-21,9,93.53,-5.2,-0.71,16252.964529586594,0.002902
383,1900-01-01 19:34:55.900,21.790586,39.066212,45.22,1290,234,16200,7,26,4,93.45,-5.1,-0.56,16021.546616978025,0.002803
384,1900-01-01 19:34:56.100,21.790567,39.066189,46.18,944,300,16966,-3,-5,-2,93.43,-4.97,-0.35,16177.261696591298,0.003179
385,1900-01-01 19:34:56.300,21.790548,39.06617,48.26,542,-656,13828,-25,-15,-2,93.41,-4.78,-0.25,16252.964529586594,0.002883
386,1900-01-01 19:34:56.400,21.790535,39.066158,49.25,2840,408,16148,-1,11,-3,93.41,-4.79,-0.23,16407.64797282048,0.001904
387,1900-01-01 19:34:56.600,21.790516,39.066135,50.23,1340,112,17732,7,19,-4,93.43,-4.67,-0.16,16421.209212478843,0.003179
388,1900-01-01 19:34:56.800,21.790495,39.066113,51.2,928,124,16380,20,15,-5,93.47,-4.69,0.0,17585.87399022295,0.003258
389,1900-01-01 19:34:57.000,21.790476,39.066093,51.98,1156,960,17530,32,11,-3,93.51,-4.52,0.26,17577.58003821914,0.002954
390,1900-01-01 19:34:57.200,21.790455,39.066071,52.98,1364,634,18346,12,-12,-3,93.52,-4.49,0.48,16574.397002606158,0.003258
391,1900-01-01 19:34:57.300,21.790442,39.066059,53.83,1126,578,16526,-2,10,-3,93.55,-4.44,0.58,16574.397002606158,0.001904
392,1900-01-01 19:34:57.500,21.790421,39.066036,54.71,930,20,16180,-14,6,-5,93.58,-4.33,0.61,16568.950962568513,0.00333
393,1900-01-01 19:34:57.700,21.790398,39.066013,55.36,1086,492,15606,-2,-15,-3,93.62,-4.32,0.66,16568.950962568513,0.00349
394,1900-01-01 19:34:57.900,21.790375,39.06599,56.04,850,-76,17706,16,-3,-2,93.64,-4.15,0.74,16401.78002535091,0.00349
395,1900-01-01 19:34:58.100,21.790354,39.065968,56.34,1152,778,17064,1,-1,-1,93.67,-4.03,0.86,17109.258546179026,0.003258
396,1900-01-01 19:34:58.300,21.790333,39.065941,56.85,588,616,16368,1,-22,-6,93.7,-3.82,0.97,17096.258421069797,0.003637
397,1900-01-01 19:34:58.400,21.790321,39.065929,57.14,1658,606,18472,8,-22,-7,93.73,-3.66,1.01,16991.186656617014,0.001821
398,1900-01-01 19:34:58.600,21.7903,39.065907,57.5,296,746,16324,-9,-13,-4,93.79,-3.4,1.05,16389.76522101522,0.003258
399,1900-01-01 19:34:58.800,21.790279,39.065884,57.78,782,-90,16962,-2,-22,-7,93.83,-3.37,1.04,16335.217047838698,0.00333
400,1900-01-01 19:34:59.000,21.790258,39.065861,57.76,574,192,14926,-13,-34,-5,93.87,-3.27,1.02,14931.479364081779,0.00333
401,1900-01-01 19:34:59.100,21.790247,39.065849,57.75,166,-424,14800,-10,12,-3,93.9,-3.2,0.98,14930.470052881792,0.001741
402,1900-01-01 19:34:59.300,21.790228,39.065826,58.09,356,282,14098,-13,21,-3,93.93,-3.25,1.02,14930.985098110574,0.003179
403,1900-01-01 19:34:59.500,21.790207,39.0658,58.63,338,-82,14962,-4,-13,-5,93.98,-3.14,0.99,14965.628085716951,0.003558
404,1900-01-01 19:34:59.700,21.790188,39.065777,58.75,272,186,17682,-11,16,-4,94.03,-2.94,0.92,16194.596012250506,0.003179
405,1900-01-01 19:34:59.900,21.790171,39.06575,59.28,-14,612,17402,-7,-63,-5,94.05,-3.03,0.79,16687.812798566505,0.003368
406,1900-01-01 19:35:00.000,21.790161,39.065739,59.37,1238,-130,16190,-16,2,-4,94.08,-2.93,0.75,17414.538638735165,0.001589
407,1900-01-01 19:35:00.200,21.790144,39.065716,59.35,634,114,16684,-5,31,-1,94.11,-2.82,0.72,16696.73668714938,0.003035
408,1900-01-01 19:35:00.400,21.790125,39.065689,59.65,642,284,17596,-7,0,-4,94.16,-2.74,0.68,16696.400330610188,0.003498
409,1900-01-01 19:35:00.600,21.790106,39.065666,59.91,1062,-42,16064,-4,-5,-4,94.18,-2.84,0.67,17102.434329650267,0.003179
410,1900-01-01 19:35:00.800,21.790087,39.065639,60.29,352,-352,18434,15,13,-1,94.24,-2.66,0.69,17105.17465564149,0.003498
411,1900-01-01 19:35:01.000,21.790066,39.065613,60.68,662,1828,17090,9,-52,-13,94.31,-2.67,0.95,16719.764711263135,0.003558
412,1900-01-01 19:35:01.100,21.790056,39.065601,60.95,1106,888,16672,17,1,-29,94.49,-2.49,1.31,17210.92931831399,0.001665
413,1900-01-01 19:35:01.300,21.790037,39.065575,61.27,898,2012,16526,-8,19,-56,95.0,-2.63,2.26,17235.911464149496,0.003416
414,1900-01-01 19:35:01.500,21.790018,39.065548,61.47,980,3040,18398,8,-45,-73,95.75,-2.57,3.21,16821.537622940417,0.003498
415,1900-01-01 19:35:01.700,21.789997,39.065521,61.47,1006,2610,17824,10,1,-80,96.7,-2.51,4.15,17626.250083327424,0.003637
416,1900-01-01 19:35:01.900,21.789978,39.065495,61.48,-454,1664,15644,-6,-31,-72,97.85,-2.46,5.08,17592.07241913243,0.003416
417,1900-01-01 19:35:02.100,21.789959,39.065468,61.24,-616,1908,17488,-38,13,-68,98.65,-2.25,5.34,17340.30414958169,0.003498
418,1900-01-01 19:35:02.400,21.789932,39.065426,61.32,102,1844,13694,-6,-21,-67,99.56,-2.03,5.32,16314.774776257256,0.005274
419,1900-01-01 19:35:02.600,21.789913,39.065399,61.3,-1176,228,17236,-14,35,-29,100.34,-0.94,5.03,16278.238971092665,0.003498
420,1900-01-01 19:35:02.800,21.789896,39.065372,61.36,-3408,-980,16218,20,-35,21,100.28,0.46,3.99,16374.645400740745,0.003368
421,1900-01-01 19:35:03.100,21.789869,39.065331,60.68,-2248,758,15570,-26,73,25,99.97,1.99,3.08,16864.342619859217,0.00519
422,1900-01-01 19:35:03.300,21.789852,39.065304,60.41,-3276,-274,16652,2,-78,6,99.69,3.02,2.22,16872.320646550077,0.003368
423,1900-01-01 19:35:03.500,21.789833,39.065277,60.18,-2658,310,16738,14,17,4,99.6,4.54,1.97,16872.320646550077,0.003498
424,1900-01-01 19:35:03.800,21.789808,39.065235,59.54,-2700,564,16924,-5,-13,4,99.48,5.31,1.69,16953.63571627042,0.005151
425,1900-01-01 19:35:04.000,21.789793,39.065208,58.55,-3364,-890,14412,5,-7,14,99.34,6.01,1.29,16282.110551153988,0.003249
426,1900-01-01 19:35:04.200,21.789776,39.065182,57.78,-3172,-3618,16032,-61,8,111,98.47,6.73,-0.55,16655.4780177574,0.003283
427,1900-01-01 19:35:04.400,21.789761,39.065155,56.66,-542,-5146,14838,-47,-3,168,95.98,6.21,-4.25,16735.98709368527,0.003249
428,1900-01-01 19:35:04.700,21.789736,39.065121,54.3,-1368,-4604,17394,-3,-21,172,93.65,5.5,-6.7,16690.485433323982,0.004478
429,1900-01-01 19:35:04.900,21.789721,39.065094,53.76,-592,-4938,16178,13,20,164,91.49,5.01,-8.17,16829.089814960284,0.003249
430,1900-01-01 19:35:05.100,21.789703,39.065071,53.45,-372,-3270,15690,11,8,140,89.52,4.17,-9.05,16509.360011823595,0.003106
431,1900-01-01 19:35:05.300,21.789688,39.065048,53.2,-14,-1416,16366,8,-9,77,88.06,3.79,-8.94,15841.418370840409,0.002902
432,1900-01-01 19:35:05.500,21.789669,39.065025,52.79,510,-538,15778,8,6,33,87.49,3.16,-8.03,15795.405281283542,0.003179
433,1900-01-01 19:35:05.700,21.789652,39.065006,52.28,1364,1036,14948,39,-3,-19,87.46,2.2,-6.36,16411.793564385338,0.002724
434,1900-01-01 19:35:05.900,21.789635,39.064983,52.17,654,1252,16758,34,-27,-35,87.86,1.83,-4.54,16299.729691010216,0.003035
435,1900-01-01 19:35:06.100,21.789616,39.064964,51.97,980,1812,16526,25,-4,-45,88.44,0.89,-2.73,16646.533573089622,0.002883
436,1900-01-01 19:35:06.300,21.789598,39.064941,51.79,1526,1948,16222,9,21,-50,89.07,0.25,-1.29,16692.931438186642,0.003106
437,1900-01-01 19:35:06.500,21.789579,39.064922,51.76,1320,1502,17974,7,29,-49,89.73,-0.6,-0.21,16704.115061864246,0.002883
438,1900-01-01 19:35:06.700,21.789562,39.064899,51.68,1170,1006,16584,-15,-1,-47,90.3,-1.25,0.61,16674.2418118486,0.003035
439,1900-01-01 19:35:06.900,21.789543,39.06488,52.08,1484,410,17064,8,21,-32,90.91,-1.91,1.3,17144.519007542905,0.002883
440,1900-01-01 19:35:07.200,21.789516,39.064846,52.63,1022,1122,15236,8,-25,-28,91.22,-2.28,1.63,16655.629438721313,0.004619
441,1900-01-01 19:35:07.400,21.789497,39.064827,53.33,1662,944,18334,-9,4,-22,91.51,-2.48,1.88,17130.918130678227,0.002883
442,1900-01-01 19:35:07.600,21.78948,39.064804,53.42,1114,1010,14644,-7,8,-17,91.76,-2.81,1.95,15305.810269306228,0.003035
443,1900-01-01 19:35:07.800,21.789461,39.064781,53.74,1182,868,17644,5,15,-17,91.99,-3.05,2.03,16889.147995088442,0.003179
444,1900-01-01 19:35:08.000,21.789442,39.064758,54.85,888,-86,15236,-15,2,-13,92.25,-3.04,2.07,15449.316360279507,0.003179
445,1900-01-01 19:35:08.300,21.789415,39.064724,55.25,944,336,16830,-9,15,-11,92.42,-3.24,2.03,16317.792252630255,0.004619
446,1900-01-01 19:35:08.500,21.789396,39.064701,55.75,508,1114,15396,-39,-13,-7,92.54,-3.08,1.65,15479.145325243251,0.003179
447,1900-01-01 19:35:08.700,21.789379,39.064678,56.0,884,498,16286,-56,15,-7,92.64,-3.02,1.34,16313.434586254361,0.003035
448,1900-01-01 19:35:09.000,21.789352,39.064644,56.52,1564,-140,15450,-35,-66,-4,92.75,-3.15,0.77,16310.00748007186,0.004619
449,1900-01-01 19:35:09.200,21.789333,39.064617,57.13,430,-462,18678,31,81,-2,92.82,-2.66,0.45,16310.250764473243,0.003498
450,1900-01-01 19:35:09.400,21.789314,39.064594,57.6,878,108,16550,33,1,6,92.8,-3.43,0.68,16357.758770687384,0.003179
451,1900-01-01 19:35:09.600,21.789295,39.064571,57.81,656,-560,15160,11,-57,2,92.77,-3.17,1.05,16560.865436323067,0.003179
452,1900-01-01 19:35:09.800,21.789276,39.064545,58.16,56,500,16344,-1,-6,5,92.76,-2.74,1.12,16357.516192869869,0.003416
453,1900-01-01 19:35:10.000,21.789257,39.064522,58.37,590,110,19022,-4,-8,1,92.71,-2.86,0.99,16355.600630976534,0.003179
454,1900-01-01 19:35:10.200,21.789238,39.064495,58.79,1636,-112,15452,1,3,3,92.68,-3.1,0.78,16355.015622126442,0.003498
455,1900-01-01 19:35:10.400,21.789219,39.064472,59.09,606,960,18136,22,-14,0,92.67,-2.78,0.78,17054.563494853803,0.003179
456,1900-01-01 19:35:10.600,21.7892,39.064445,59.5,566,-80,15062,-1,-21,5,92.63,-2.73,0.83,17054.95740246806,0.003498
457,1900-01-01 19:35:10.800,21.789181,39.064419,59.99,-772,116,17044,-13,16,15,92.54,-2.17,0.49,17054.534294433255,0.003416
458,1900-01-01 19:35:10.900,21.789171,39.064407,60.45,840,-788,18532,21,101,20,92.4,-2.52,0.21,15398.45771497912,0.001665
459,1900-01-01 19:35:11.100,21.789152,39.064384,60.74,598,40,14840,8,-70,7,92.24,-3.09,0.12,17054.534294433255,0.003179
460,1900-01-01 19:35:11.300,21.789131,39.064358,60.68,-64,346,15388,-23,-5,14,92.11,-2.14,0.01,16483.788035521447,0.003558
461,1900-01-01 19:35:11.500,21.789112,39.064331,61.15,814,-1052,18376,-10,33,15,91.94,-2.22,-0.42,15969.651467705862,0.003498
462,1900-01-01 19:35:11.700,21.789091,39.064308,61.92,622,120,16472,19,-27,-2,91.86,-2.49,-0.37,15972.571740330359,0.00333
463,1900-01-01 19:35:11.900,21.78907,39.064281,62.11,398,606,15958,27,1,0,91.88,-2.34,-0.06,15970.568180249567,0.003637
464,1900-01-01 19:35:12.100,21.789049,39.064255,62.23,1024,280,15016,-7,0,-3,91.88,-2.32,0.22,15972.571740330359,0.003558
465,1900-01-01 19:35:12.300,21.789028,39.064228,62.52,592,86,14840,3,6,-5,91.92,-2.18,0.4,15797.126320948377,0.003637
466,1900-01-01 19:35:12.500,21.789007,39.064205,62.86,966,576,16398,-10,4,-8,92.01,-2.1,0.57,15413.852860333136,0.00333
467,1900-01-01 19:35:12.700,21.788986,39.064178,62.95,680,152,15780,6,-27,-8,92.1,-2.13,0.63,15795.885666843757,0.003637
468,1900-01-01 19:35:12.900,21.788965,39.064152,63.14,834,198,15390,11,32,-5,92.17,-2.1,0.74,16414.98303380177,0.003558
469,1900-01-01 19:35:13.100,21.788944,39.064125,63.21,532,878,16440,4,-11,-8,92.24,-2.14,0.86,16451.488929577165,0.003637
470,1900-01-01 19:35:13.400,21.788914,39.064087,63.61,398,308,17150,-4,17,-7,92.29,-2.04,0.95,16451.424376022886,0.00515
471,1900-01-01 19:35:13.500,21.788902,39.064072,63.63,530,674,17198,-3,-15,-6,92.39,-1.79,0.95,17161.22023633518,0.002044
472,1900-01-01 19:35:13.800,21.788872,39.064034,64.05,336,112,15340,-17,2,-3,92.46,-1.65,0.95,17157.38231782459,0.00515
473,1900-01-01 19:35:14.000,21.788849,39.064007,64.13,282,476,17378,13,-20,-4,92.51,-1.53,1.0,16603.54227265977,0.003783
474,1900-01-01 19:35:14.200,21.788828,39.06398,64.09,536,82,16596,2,-24,-7,92.57,-1.36,1.08,16601.491017375516,0.003637
475,1900-01-01 19:35:14.400,21.788807,39.063953,64.7,412,284,15098,13,3,-5,92.64,-1.28,1.14,16603.54227265977,0.003637
476,1900-01-01 19:35:14.600,21.788786,39.063927,64.73,614,-14,16610,-5,-11,-4,92.67,-1.29,1.17,16603.73271285707,0.003558
477,1900-01-01 19:35:14.800,21.788765,39.0639,64.41,146,310,15490,-17,-3,-4,92.72,-1.22,1.08,16363.652892920945,0.003637
478,1900-01-01 19:35:15.000,21.788744,39.063873,64.37,500,-242,17114,-4,-17,-7,92.77,-1.13,1.0,16500.658047484045,0.003637
479,1900-01-01 19:35:15.200,21.788723,39.063843,64.59,-186,1002,16356,7,-14,-6,92.83,-1.05,1.0,16515.05834079916,0.003879
480,1900-01-01 19:35:15.400,21.788702,39.063816,64.62,240,756,16496,8,-9,-4,92.89,-0.95,1.02,16520.23111218484,0.003637
481,1900-01-01 19:35:15.600,21.788681,39.063789,64.9,926,998,18912,12,1,-5,92.93,-0.91,1.09,16520.23111218484,0.003637
482,1900-01-01 19:35:15.800,21.78866,39.063763,64.86,478,542,16230,-3,-2,-2,92.96,-1.02,1.11,16514.86857350067,0.003558
483,1900-01-01 19:35:16.000,21.788639,39.063736,64.9,494,628,16540,21,-4,-3,93.0,-0.89,1.06,16246.559635812131,0.003637
484,1900-01-01 19:35:16.200,21.78862,39.063709,64.94,202,-200,15444,10,46,3,93.01,-0.93,1.07,16240.852440681801,0.003498
485,1900-01-01 19:35:16.400,21.788599,39.063683,65.18,696,352,15584,-18,-28,-1,93.02,-1.05,0.96,16383.452383426395,0.003558
486,1900-01-01 19:35:16.600,21.788578,39.063652,65.52,222,-10,16376,-6,13,-1,93.05,-0.8,0.75,15599.563199012977,0.003962
