Counter,Time,Latitude,Longitude,Speed(km/h),Ax,Ay,Az,Gx,Gy,Gz,Yaw,Pitch,Roll,acceleration_magnitude,distance
1,1900-01-01 21:52:16.500,21.797155,39.075054,0.24,40,58,16838,0,-3,0,0.01,-0.01,0.4,0.0,0.0
2,1900-01-01 21:52:16.600,21.797157,39.075054,0.17,-22,-304,15728,-1,0,0,0.01,-0.01,0.36,0.0,0.000222
3,1900-01-01 21:52:16.700,21.797159,39.075054,0.17,44,-266,15924,-1,-2,0,0.01,-0.0,0.34,16072.645581857394,0.000222
4,1900-01-01 21:52:16.800,21.797161,39.075054,0.26,-34,-144,16644,1,0,1,0.01,-0.0,0.31,16074.216123966979,0.000222
5,1900-01-01 21:52:16.900,21.797161,39.075054,0.53,4,250,16072,-3,-1,-1,0.01,-0.0,0.29,16138.666735514431,0.0
6,1900-01-01 21:52:17.000,21.797163,39.075058,0.26,-28,-390,16138,-1,1,1,0.01,-0.0,0.26,16140.346588595921,0.000469
7,1900-01-01 21:52:17.100,21.797163,39.075058,0.24,-72,102,16928,0,-2,0,0.01,0.01,0.23,16140.32676249152,0.0
8,1900-01-01 21:52:17.200,21.797165,39.075058,0.27,46,298,16140,-2,0,-1,0.01,0.01,0.21,16612.336741109,0.000222
9,1900-01-01 21:52:17.300,21.797165,39.075058,0.12,-12,-86,16612,1,0,0,0.01,0.01,0.19,16613.02332509047,0.0
10,1900-01-01 21:52:17.400,21.797167,39.075058,0.02,-44,184,16930,-1,0,-1,0.01,0.01,0.17,16299.103533630308,0.000222
11,1900-01-01 21:52:17.500,21.797167,39.075058,0.23,52,388,16298,-3,-3,0,0.01,0.01,0.15,16612.18745379428,0.0
12,1900-01-01 21:52:17.600,21.797167,39.075058,0.26,90,-296,16020,0,1,-1,0.02,0.01,0.14,16753.010475732415,0.0
13,1900-01-01 21:52:17.700,21.797169,39.075058,0.28,-84,78,16752,2,-2,0,0.02,0.01,0.12,16299.594841590388,0.000222
14,1900-01-01 21:52:17.800,21.797169,39.075058,0.15,0,338,16998,-1,1,-1,0.02,0.01,0.1,16752.504409789002,0.0
15,1900-01-01 21:52:17.900,21.797169,39.075058,0.45,118,222,16098,-3,-1,0,0.02,0.01,0.1,16998.958438680882,0.0
16,1900-01-01 21:52:18.000,21.797169,39.075058,0.21,-30,130,17202,0,0,1,0.02,0.01,0.08,16999.452579421493,0.0
17,1900-01-01 21:52:18.100,21.797169,39.075058,0.32,-30,178,17076,1,-1,0,0.02,0.01,0.06,16946.937776483395,0.0
18,1900-01-01 21:52:18.200,21.797169,39.075058,0.13,-10,262,16946,-1,0,-1,0.02,0.01,0.06,16946.501585873117,0.0
19,1900-01-01 21:52:18.300,21.797169,39.075058,0.4,104,-226,15996,-1,0,0,0.02,0.01,0.06,16768.945822561418,0.0
20,1900-01-01 21:52:18.400,21.797169,39.075058,0.15,6,-266,16256,1,2,0,0.02,0.01,0.04,16257.573988759823,0.0
21,1900-01-01 21:52:18.500,21.797169,39.075058,0.43,10,270,16768,-2,0,1,0.02,-0.0,0.04,16257.583215226057,0.0
22,1900-01-01 21:52:18.600,21.797169,39.075058,0.36,64,-252,15886,-2,-2,0,0.03,0.01,0.03,16570.586712606164,0.0
23,1900-01-01 21:52:18.700,21.797171,39.075058,0.39,20,-138,16570,1,2,-1,0.03,0.01,0.02,16570.586712606164,0.000222
24,1900-01-01 21:52:18.800,21.797171,39.075058,0.38,28,166,16960,-2,1,0,0.03,0.01,0.02,15936.62210131118,0.0
25,1900-01-01 21:52:18.900,21.797171,39.075058,0.28,-76,-208,15936,1,4,0,0.03,0.01,0.03,16570.418099734237,0.0
26,1900-01-01 21:52:19.000,21.797171,39.075058,0.24,40,-116,15772,-1,-1,0,0.03,0.01,0.01,16404.013289436218,0.0
27,1900-01-01 21:52:19.100,21.797171,39.075058,0.35,-26,-6,17138,0,-3,0,0.03,0.02,0.0,16302.433437987103,0.0
28,1900-01-01 21:52:19.200,21.797171,39.075058,0.13,20,252,16404,-1,0,-1,0.03,0.02,0.0,16404.085100974087,0.0
29,1900-01-01 21:52:19.302,21.797173,39.075058,0.34,-140,-126,16302,1,-1,0,0.04,0.01,0.01,16404.02170200954,0.000222
30,1900-01-01 21:52:19.402,21.797173,39.075058,0.51,-64,-46,17086,2,2,-1,0.04,0.03,-0.01,16312.129719935409,0.0
31,1900-01-01 21:52:19.502,21.797173,39.075058,0.18,72,174,16312,-3,-1,-1,0.04,0.01,-0.01,16302.590100962485,0.0
32,1900-01-01 21:52:19.602,21.797173,39.075058,0.33,-46,-140,15924,1,0,0,0.05,0.01,-0.01,16312.129719935409,0.0
33,1900-01-01 21:52:19.702,21.797165,39.075062,0.0,-58,-136,16076,0,2,0,0.05,0.02,-0.01,16312.952032051096,0.000981
34,1900-01-01 21:52:19.802,21.797163,39.075062,0.0,76,224,16616,-4,-3,0,0.05,0.02,-0.02,16502.485994540337,0.000222
35,1900-01-01 21:52:19.902,21.797159,39.075062,0.0,28,260,16558,-1,12,-1,0.06,0.0,-0.03,16503.595971787483,0.000445
36,1900-01-01 21:52:20.002,21.797159,39.075062,0.0,-72,-118,16502,1,-5,1,0.06,0.01,-0.03,16503.543983035885,0.0
37,1900-01-01 21:52:20.102,21.797159,39.075062,0.0,-50,322,16064,-4,-5,0,0.05,0.01,-0.03,16206.419592248005,0.0
38,1900-01-01 21:52:20.202,21.797159,39.075062,0.0,60,108,16206,-2,-1,-1,0.06,0.01,-0.02,16064.493642813644,0.0
39,1900-01-01 21:52:20.300,21.797159,39.075062,0.0,-44,-154,15790,-1,0,0,0.06,0.01,-0.03,16064.17990437109,0.0
40,1900-01-01 21:52:20.400,21.797159,39.075062,0.0,2,-152,15864,0,0,0,0.06,0.01,-0.04,16206.118721026327,0.0
41,1900-01-01 21:52:20.500,21.797159,39.075062,0.0,-48,-62,16644,2,-2,-1,0.06,0.01,-0.04,16088.762910802061,0.0
42,1900-01-01 21:52:20.600,21.797159,39.075062,0.0,30,330,16272,-2,0,1,0.06,0.01,-0.04,16272.710038589146,0.0
43,1900-01-01 21:52:20.700,21.797157,39.075062,0.0,-38,-168,16088,-2,6,-1,0.06,0.01,-0.03,16644.123167052087,0.000222
44,1900-01-01 21:52:20.800,21.797159,39.075062,0.0,16,-158,16910,2,-1,-2,0.06,0.02,-0.04,16370.233718551486,0.000222
45,1900-01-01 21:52:20.900,21.797159,39.075062,0.0,22,86,17086,0,-2,0,0.06,0.0,-0.06,16370.77029342236,0.0
46,1900-01-01 21:52:21.000,21.797159,39.075062,0.0,14,436,16370,-3,1,0,0.06,0.03,-0.03,16370.77029342236,0.0
47,1900-01-01 21:52:21.100,21.797159,39.075062,0.0,152,-248,15772,-3,0,-1,0.06,0.01,-0.02,16370.24068240904,0.0
48,1900-01-01 21:52:21.200,21.797159,39.075062,0.0,-100,-304,16152,1,0,1,0.07,0.01,-0.06,16215.244555664278,0.0
49,1900-01-01 21:52:21.300,21.797159,39.075062,0.0,34,252,17136,-1,0,0,0.07,0.02,-0.06,16214.556793202828,0.0
50,1900-01-01 21:52:21.400,21.797159,39.075062,0.0,58,198,16214,-1,1,-2,0.07,0.01,-0.03,16214.041568961145,0.0
51,1900-01-01 21:52:21.500,21.797159,39.075062,0.0,-32,-130,16516,1,2,0,0.08,0.01,-0.04,16406.03230522237,0.0
52,1900-01-01 21:52:21.600,21.797159,39.075062,0.0,-130,-18,15686,4,-1,-2,0.08,0.02,-0.06,16406.03230522237,0.0
53,1900-01-01 21:52:21.700,21.797159,39.075062,0.0,-154,6,16406,1,0,-1,0.08,0.01,-0.05,16516.03209006328,0.0
54,1900-01-01 21:52:21.800,21.797159,39.075058,0.0,90,62,16986,-3,-2,1,0.08,0.02,-0.04,16406.002194319004,0.000413
55,1900-01-01 21:52:21.900,21.797159,39.075058,0.0,-6,192,16672,-2,0,-1,0.08,0.03,-0.04,16406.24795619035,0.0
56,1900-01-01 21:52:22.000,21.797161,39.075058,0.0,180,-124,16042,-4,0,1,0.08,0.01,-0.04,16042.731687589867,0.000222
57,1900-01-01 21:52:22.100,21.797161,39.075058,0.0,164,-234,15654,-2,2,0,0.08,0.02,-0.04,16042.678704007008,0.0
58,1900-01-01 21:52:22.200,21.797161,39.075058,0.0,80,-256,15674,-1,2,0,0.08,0.02,-0.03,16042.678704007008,0.0
59,1900-01-01 21:52:22.300,21.797161,39.075058,0.0,-76,-8,16920,3,-3,0,0.08,0.01,-0.05,16356.14331069522,0.0
60,1900-01-01 21:52:22.400,21.797161,39.075058,0.0,-74,230,16892,-2,-2,1,0.08,0.02,-0.06,16356.050868103828,0.0
61,1900-01-01 21:52:22.500,21.797161,39.075058,0.0,68,358,16356,-2,3,-1,0.08,0.03,-0.06,16892.532314605764,0.0
62,1900-01-01 21:52:22.600,21.797161,39.075058,0.0,40,-252,15930,-2,1,-1,0.09,0.02,-0.04,16356.560029541664,0.0
63,1900-01-01 21:52:22.700,21.797161,39.075058,0.0,44,128,16934,-5,-3,1,0.09,0.02,-0.06,16118.408606310984,0.0
64,1900-01-01 21:52:22.800,21.797161,39.075058,0.0,168,106,16118,-1,-1,0,0.09,0.01,-0.06,16118.050750633589,0.0
65,1900-01-01 21:52:22.900,21.797161,39.075058,0.0,-86,-62,15672,0,-1,0,0.09,0.01,-0.06,16118.061173726821,0.0
66,1900-01-01 21:52:23.000,21.797161,39.075058,0.0,20,-6,17466,1,3,0,0.09,0.03,-0.06,16094.131849838934,0.0
67,1900-01-01 21:52:23.100,21.797161,39.075058,0.0,156,-114,16094,-2,0,-1,0.09,0.02,-0.05,16094.131849838934,0.0
68,1900-01-01 21:52:23.200,21.797163,39.075058,0.0,-84,-100,15586,0,-2,-1,0.1,0.02,-0.06,16252.015998023138,0.000222
69,1900-01-01 21:52:23.300,21.797163,39.075058,0.0,68,72,17508,-1,5,1,0.1,0.03,-0.06,16094.325708149441,0.0
70,1900-01-01 21:52:23.400,21.797163,39.075058,0.0,22,278,16252,-2,4,-1,0.1,0.02,-0.06,16252.039010536493,0.0
71,1900-01-01 21:52:23.500,21.797163,39.075058,0.0,-112,-130,15756,-1,0,1,0.1,0.03,-0.06,16256.083661202043,0.0
72,1900-01-01 21:52:23.600,21.797163,39.075058,0.0,44,28,17466,1,1,0,0.1,0.03,-0.06,16252.027196629964,0.0
73,1900-01-01 21:52:23.700,21.797163,39.075058,0.0,64,20,16256,-2,0,-1,0.1,0.03,-0.04,16256.071850234915,0.0
74,1900-01-01 21:52:23.800,21.797163,39.075058,0.0,-62,-168,15292,-1,-4,0,0.1,0.02,-0.04,16256.083661202043,0.0
75,1900-01-01 21:52:23.900,21.797163,39.075058,0.0,64,124,17548,5,1,-2,0.11,0.02,-0.04,16256.591155589784,0.0
76,1900-01-01 21:52:24.000,21.797163,39.075058,0.0,-68,344,16230,-4,-6,0,0.12,0.01,-0.03,16230.616131250224,0.0
77,1900-01-01 21:52:24.100,21.797163,39.075058,0.0,-132,350,17352,1,3,-2,0.13,0.03,-0.01,16231.010442976125,0.0
78,1900-01-01 21:52:24.200,21.797163,39.075058,0.0,-534,-470,15722,-6,-8,1,0.13,0.14,-0.05,16241.920452951368,0.0
79,1900-01-01 21:52:24.300,21.797163,39.075058,0.0,-646,-732,15076,-8,-4,7,0.11,0.29,-0.12,16717.58104511535,0.0
80,1900-01-01 21:52:24.400,21.797161,39.075058,0.0,-506,-362,16706,1,-1,10,0.05,0.42,-0.2,16187.960217396138,0.000222
81,1900-01-01 21:52:24.500,21.797161,39.075058,0.0,-430,-348,17176,-2,0,15,-0.01,0.52,-0.26,16716.63231634889,0.0
82,1900-01-01 21:52:24.600,21.797161,39.075058,0.0,-484,-274,16176,0,2,22,-0.12,0.62,-0.32,16713.77910587549,0.0
83,1900-01-01 21:52:24.700,21.797161,39.075058,0.0,-300,-236,16946,2,-3,26,-0.27,0.7,-0.37,16184.033860567642,0.0
84,1900-01-01 21:52:24.800,21.797161,39.075058,0.0,-398,-40,16072,-2,0,31,-0.45,0.77,-0.39,16182.61647571245,0.0
85,1900-01-01 21:52:24.900,21.797161,39.075058,0.0,-544,-298,15860,0,-6,38,-0.65,0.83,-0.43,16076.877930742648,0.0
86,1900-01-01 21:52:25.000,21.797161,39.075058,0.0,-192,20,16234,-6,3,41,-0.9,0.86,-0.45,16075.223419909285,0.0
87,1900-01-01 21:52:25.100,21.797161,39.075058,0.0,-318,-496,15768,0,-8,47,-1.16,0.87,-0.48,15865.94907340875,0.0
88,1900-01-01 21:52:25.200,21.797161,39.075058,0.0,-176,-50,17010,0,-3,54,-1.47,0.9,-0.52,16237.299898690053,0.0
89,1900-01-01 21:52:25.300,21.797161,39.075058,0.0,-574,-296,15756,-1,-3,58,-1.81,0.94,-0.52,16191.811387241392,0.0
90,1900-01-01 21:52:25.400,21.797161,39.075058,0.0,-256,-204,16866,-2,-4,60,-2.17,1.0,-0.53,16393.76442431695,0.0
91,1900-01-01 21:52:25.500,21.797159,39.075058,0.0,-286,-92,16188,-2,-4,69,-2.57,1.02,-0.57,16191.811387241392,0.000222
92,1900-01-01 21:52:25.600,21.797159,39.075062,0.0,-348,-316,16390,2,-1,78,-3.02,1.03,-0.62,16392.677145603764,0.000413
93,1900-01-01 21:52:25.700,21.797159,39.075062,0.0,-260,-142,16058,-2,-2,81,-3.51,1.05,-0.6,16392.355047399382,0.0
94,1900-01-01 21:52:25.800,21.797159,39.075062,0.0,-226,-98,16890,3,1,83,-4.0,1.07,-0.58,16392.373226595348,0.0
95,1900-01-01 21:52:25.900,21.797159,39.075062,0.0,-28,238,16572,0,-3,88,-4.54,1.04,-0.57,16574.347166630727,0.0
96,1900-01-01 21:52:26.000,21.797159,39.075062,0.0,-258,-106,16016,-1,-11,92,-5.09,1.03,-0.54,16573.830697819983,0.0
97,1900-01-01 21:52:26.100,21.797157,39.075062,0.0,-288,-166,16856,6,-1,94,-5.66,1.05,-0.53,16018.428637041774,0.000222
98,1900-01-01 21:52:26.200,21.797157,39.075062,0.0,-80,226,15518,1,-7,97,-6.24,1.02,-0.48,16018.694328814692,0.0
99,1900-01-01 21:52:26.300,21.797157,39.075062,0.0,-636,-192,15998,-5,-10,98,-6.84,1.07,-0.44,16001.453184008007,0.0
100,1900-01-01 21:52:26.400,21.797157,39.075062,0.0,-274,-44,16860,3,-1,105,-7.46,1.13,-0.45,16001.88863853264,0.0
101,1900-01-01 21:52:26.500,21.797157,39.075062,0.0,-350,-250,15202,2,-11,106,-8.1,1.15,-0.44,16081.589598046581,0.0
102,1900-01-01 21:52:26.600,21.797157,39.075062,0.0,-378,200,16974,-2,-10,112,-8.77,1.22,-0.39,16863.689869064838,0.0
103,1900-01-01 21:52:26.700,21.797157,39.075062,0.0,-504,-234,16076,2,-3,118,-9.48,1.27,-0.37,16082.145876716826,0.0
104,1900-01-01 21:52:26.800,21.797155,39.075062,0.0,-186,196,16878,-3,-8,116,-10.2,1.28,-0.35,16731.074562023805,0.000222
105,1900-01-01 21:52:26.900,21.797155,39.075062,0.0,-510,-318,15780,-1,-7,123,-10.91,1.32,-0.33,16081.330417599162,0.0
106,1900-01-01 21:52:27.000,21.797155,39.075062,0.0,-180,164,16726,-3,-2,126,-11.68,1.34,-0.33,16727.36942857424,0.0
107,1900-01-01 21:52:27.100,21.797155,39.075062,0.0,-414,4,16004,-2,-14,126,-12.45,1.34,-0.3,16289.406250689433,0.0
108,1900-01-01 21:52:27.200,21.797155,39.075066,0.0,-214,-72,17010,-3,0,134,-13.24,1.37,-0.32,16289.406250689433,0.000413
109,1900-01-01 21:52:27.300,21.797155,39.075066,0.0,-114,102,16288,-5,-8,136,-14.07,1.36,-0.34,16291.760494188466,0.0
110,1900-01-01 21:52:27.400,21.797155,39.075066,0.0,-548,-96,15674,-2,-10,135,-14.89,1.39,-0.33,16291.795481161676,0.0
111,1900-01-01 21:52:27.500,21.797155,39.075066,0.0,-350,238,16826,-4,-6,139,-15.73,1.42,-0.3,16292.079302532258,0.0
112,1900-01-01 21:52:27.600,21.797153,39.075066,0.0,-424,-34,15612,-5,-9,144,-16.6,1.42,-0.29,15882.58442445687,0.000222
113,1900-01-01 21:52:27.700,21.797153,39.075066,0.0,-184,152,17526,-2,-6,146,-17.47,1.43,-0.3,16521.583217113304,0.0
114,1900-01-01 21:52:27.800,21.797153,39.075066,0.0,-152,214,15878,0,-5,144,-18.45,1.44,-0.26,16520.837872214594,0.0
115,1900-01-01 21:52:27.900,21.797153,39.075066,0.0,-298,172,16518,2,-5,147,-19.34,1.42,-0.24,16520.483406970874,0.0
116,1900-01-01 21:52:28.000,21.797153,39.075066,0.0,-256,168,16610,-11,-8,149,-20.25,1.43,-0.21,16520.52456794275,0.0
117,1900-01-01 21:52:28.100,21.797153,39.075066,0.0,-232,-172,15650,0,-9,146,-21.05,1.41,-0.2,16520.879032303335,0.0
118,1900-01-01 21:52:28.200,21.797153,39.075066,0.0,-106,470,17622,0,-3,151,-21.97,1.4,-0.16,16034.558678055346,0.0
119,1900-01-01 21:52:28.300,21.797153,39.075066,0.0,-364,334,16032,-3,-10,153,-22.89,1.39,-0.15,16034.90105987561,0.0
120,1900-01-01 21:52:28.400,21.797153,39.075066,0.0,-214,66,15732,-1,-7,153,-23.83,1.38,-0.15,16034.787307600935,0.0
121,1900-01-01 21:52:28.500,21.797153,39.075066,0.0,-262,198,17176,3,-7,152,-24.76,1.38,-0.12,16035.363170193557,0.0
122,1900-01-01 21:52:28.600,21.797153,39.075066,0.0,-224,8,15896,-2,-3,156,-25.69,1.41,-0.07,16398.22600161371,0.0
123,1900-01-01 21:52:28.700,21.797153,39.075066,0.0,-288,238,16558,10,-15,159,-26.75,1.45,-0.06,16399.28852115237,0.0
124,1900-01-01 21:52:28.800,21.797153,39.075066,0.0,-370,-14,16396,7,-4,157,-27.71,1.5,-0.02,16398.57798713047,0.0
125,1900-01-01 21:52:28.900,21.797153,39.075066,0.0,24,352,15160,-2,0,159,-28.68,1.42,0.12,16562.879701307982,0.0
126,1900-01-01 21:52:29.000,21.797153,39.075066,0.0,-324,40,16778,3,-14,164,-29.67,1.38,0.12,16400.545478733322,0.0
127,1900-01-01 21:52:29.100,21.797153,39.075066,0.0,-360,270,17014,1,-6,159,-30.84,1.49,0.18,16781.247986964496,0.0
128,1900-01-01 21:52:29.200,21.797152,39.075066,0.0,-190,210,16052,15,-1,161,-32.02,1.51,0.21,16781.247986964496,0.000111
129,1900-01-01 21:52:29.300,21.797152,39.075066,0.0,-82,550,17832,4,-16,156,-33.37,1.49,0.36,16590.86326867894,0.0
130,1900-01-01 21:52:29.400,21.797152,39.075066,0.0,316,536,15666,3,2,150,-34.32,1.42,0.49,16338.317906075888,0.0
131,1900-01-01 21:52:29.500,21.797152,39.075066,0.0,646,1070,16582,7,-10,137,-35.18,1.16,0.67,16364.656794445767,0.0
132,1900-01-01 21:52:29.600,21.797152,39.075066,0.0,926,920,16326,7,-1,118,-36.02,0.9,0.95,16387.210012689775,0.0
133,1900-01-01 21:52:29.700,21.797152,39.075066,0.0,1204,1210,15284,6,-2,92,-36.59,0.59,1.22,16405.267202944302,0.0
134,1900-01-01 21:52:29.800,21.797152,39.075066,0.0,1750,1656,17148,-3,3,72,-36.87,0.33,1.41,16318.213872847726,0.0
135,1900-01-01 21:52:29.900,21.797152,39.075066,0.0,1976,856,16198,-7,4,53,-37.2,-0.1,1.6,15558.67783585739,0.0
136,1900-01-01 21:52:30.000,21.797152,39.075066,0.0,1890,560,15426,-3,-4,40,-37.48,-0.57,1.68,16002.963975464045,0.0
137,1900-01-01 21:52:30.100,21.797152,39.075066,0.0,1838,560,15204,-3,-2,25,-37.63,-0.92,1.76,15993.267958738139,0.0
138,1900-01-01 21:52:30.200,21.797152,39.075066,0.0,1672,964,15874,4,-5,6,-37.7,-1.28,1.85,15971.632978502856,0.0
139,1900-01-01 21:52:30.300,21.797152,39.075066,0.0,468,650,16312,-5,-5,-5,-37.7,-1.53,1.92,16188.459099000127,0.0
140,1900-01-01 21:52:30.400,21.797152,39.075066,0.0,-676,30,16326,-19,-9,5,-37.69,-1.32,1.72,16315.770652960282,0.0
141,1900-01-01 21:52:30.500,21.797152,39.075069,0.0,-596,-96,16172,-3,-3,1,-37.72,-0.99,1.49,16312.695424116764,0.00031
142,1900-01-01 21:52:30.600,21.797152,39.075069,0.0,318,148,16858,3,3,-7,-37.7,-0.92,1.39,16331.863580130714,0.0
143,1900-01-01 21:52:30.700,21.797152,39.075069,0.0,28,204,16054,-4,-5,4,-37.7,-0.89,1.3,16172.70144410018,0.0
144,1900-01-01 21:52:30.800,21.797152,39.075069,0.0,-434,56,16714,3,2,-2,-37.72,-0.73,1.23,16216.699540905356,0.0
145,1900-01-01 21:52:30.900,21.797152,39.075069,0.0,248,308,15808,-2,3,-1,-37.7,-0.64,1.16,16217.925884649985,0.0
146,1900-01-01 21:52:31.000,21.797152,39.075069,0.0,-160,-190,16216,-2,2,4,-37.71,-0.63,1.07,16251.307639694722,0.0
147,1900-01-01 21:52:31.100,21.797152,39.075069,0.0,-362,192,17058,1,0,-3,-37.71,-0.53,0.99,16235.02510007299,0.0
148,1900-01-01 21:52:31.200,21.797152,39.075069,0.0,-34,130,16250,0,6,2,-37.71,-0.45,0.94,16250.507192084806,0.0
149,1900-01-01 21:52:31.300,21.797152,39.075069,0.0,-128,10,16234,-3,-2,4,-37.73,-0.42,0.86,16603.002379087946,0.0
150,1900-01-01 21:52:31.400,21.797152,39.075069,0.0,4,-60,16712,0,6,-1,-37.74,-0.37,0.81,16602.543780999345,0.0
151,1900-01-01 21:52:31.500,21.797152,39.075069,0.0,-226,244,16602,4,-2,-1,-37.73,-0.3,0.76,16602.525229614923,0.0
152,1900-01-01 21:52:31.600,21.797152,39.075069,0.0,126,132,16844,-1,2,0,-37.75,-0.22,0.73,16604.271016819737,0.0
153,1900-01-01 21:52:31.700,21.797152,39.075069,0.0,196,256,16514,-2,1,-1,-37.73,-0.21,0.69,16516.96545979315,0.0
154,1900-01-01 21:52:31.800,21.797152,39.075069,0.0,290,406,16098,-2,0,1,-37.73,-0.24,0.68,16117.732346704359,0.0
155,1900-01-01 21:52:31.900,21.797152,39.075069,0.0,308,16,16116,-1,5,-4,-37.72,-0.31,0.7,16117.199756781572,0.0
156,1900-01-01 21:52:32.000,21.79715,39.075069,0.0,30,-194,15896,-2,-2,-8,-37.68,-0.38,0.68,16118.170119464554,0.000222
157,1900-01-01 21:52:32.100,21.79715,39.075069,0.0,-114,-378,16304,0,-6,-2,-37.65,-0.35,0.62,16304.979484807702,0.0
158,1900-01-01 21:52:32.200,21.79715,39.075069,0.0,264,148,16970,0,5,-5,-37.63,-0.35,0.58,16305.643317575667,0.0
159,1900-01-01 21:52:32.300,21.79715,39.075069,0.0,178,460,16964,-1,1,-8,-37.59,-0.33,0.56,16305.643317575667,0.0
160,1900-01-01 21:52:32.400,21.79715,39.075069,0.0,206,478,16066,-9,2,-4,-37.55,-0.32,0.55,16269.646953760244,0.0
161,1900-01-01 21:52:32.500,21.79715,39.075069,0.0,-102,2,15900,0,3,-5,-37.52,-0.31,0.53,16268.973907410387,0.0
162,1900-01-01 21:52:32.600,21.79715,39.075069,0.0,50,-156,16268,2,1,-10,-37.48,-0.32,0.53,16269.304348988004,0.0
163,1900-01-01 21:52:32.700,21.79715,39.075069,0.0,298,-78,17020,0,-1,-7,-37.43,-0.36,0.51,16678.66253630668,0.0
164,1900-01-01 21:52:32.800,21.79715,39.075069,0.0,402,488,16676,-3,-1,-4,-37.4,-0.4,0.46,16922.82635968354,0.0
165,1900-01-01 21:52:32.900,21.79715,39.075073,0.0,402,524,16912,-2,4,-5,-37.37,-0.43,0.44,16922.82635968354,0.000413
166,1900-01-01 21:52:33.000,21.79715,39.075073,0.0,358,536,17024,0,-1,-3,-37.34,-0.47,0.43,16686.979475027827,0.0
167,1900-01-01 21:52:33.100,21.79715,39.075073,0.0,116,6,16196,1,6,-2,-37.33,-0.52,0.4,16871.799666899795,0.0
168,1900-01-01 21:52:33.200,21.79715,39.075073,0.0,280,-310,16150,3,3,-2,-37.32,-0.57,0.37,16339.923378033325,0.0
169,1900-01-01 21:52:33.300,21.79715,39.075073,0.0,642,-40,16868,-1,-1,0,-37.31,-0.63,0.38,16198.469557337816,0.0
170,1900-01-01 21:52:33.400,21.79715,39.075073,0.0,400,348,16336,-3,2,3,-37.32,-0.68,0.36,16342.856788211784,0.0
171,1900-01-01 21:52:33.500,21.79715,39.075073,0.0,250,-274,15738,-1,-1,5,-37.35,-0.76,0.33,16382.932704494639,0.0
172,1900-01-01 21:52:33.600,21.79715,39.075073,0.0,386,-274,16378,-1,-1,10,-37.39,-0.79,0.28,16340.93608089818,0.0
173,1900-01-01 21:52:33.700,21.79715,39.075073,0.0,540,112,17312,-5,6,16,-37.47,-0.84,0.23,16383.735959786462,0.0
174,1900-01-01 21:52:33.800,21.79715,39.075073,0.0,432,-36,16246,0,1,17,-37.56,-0.89,0.21,16383.813719644153,0.0
175,1900-01-01 21:52:33.900,21.79715,39.075073,0.0,580,92,16892,-2,1,19,-37.68,-0.95,0.2,16251.86093959704,0.0
176,1900-01-01 21:52:34.000,21.79715,39.075073,0.0,214,62,16050,-3,-2,25,-37.82,-0.96,0.17,16089.84076987712,0.0
177,1900-01-01 21:52:34.100,21.79715,39.075073,0.0,266,-362,16024,-3,-1,31,-37.97,-0.98,0.1,16053.083192957047,0.0
178,1900-01-01 21:52:34.200,21.79715,39.075073,0.0,510,-168,16084,-5,-1,36,-38.18,-1.02,0.03,16053.23581088872,0.0
179,1900-01-01 21:52:34.300,21.79715,39.075073,0.0,230,-310,15372,10,0,43,-38.45,-1.08,-0.04,16035.110726153405,0.0
180,1900-01-01 21:52:34.400,21.79715,39.075073,0.0,960,-182,16268,-2,0,53,-38.71,-1.16,-0.06,16115.605976816385,0.0
181,1900-01-01 21:52:34.500,21.79715,39.075073,0.0,984,-322,15938,3,0,63,-39.07,-1.3,-0.1,16300.680353899343,0.0
182,1900-01-01 21:52:34.600,21.79715,39.075073,0.0,1016,-462,16394,2,-1,73,-39.48,-1.43,-0.16,16300.912980566456,0.0
183,1900-01-01 21:52:34.700,21.79715,39.075073,0.0,1060,-174,17086,3,1,85,-39.96,-1.55,-0.22,16427.946189344548,0.0
184,1900-01-01 21:52:34.800,21.79715,39.075073,0.0,884,-382,15630,-3,-7,97,-40.52,-1.67,-0.29,16422.35330273953,0.0
185,1900-01-01 21:52:34.900,21.79715,39.075073,0.0,766,-386,16518,5,4,104,-41.14,-1.75,-0.35,16546.047987359398,0.0
186,1900-01-01 21:52:35.000,21.79715,39.075073,0.0,858,-388,16098,4,-3,118,-41.88,-1.84,-0.4,16125.37416620154,0.0
187,1900-01-01 21:52:35.100,21.79715,39.075073,0.0,1052,-380,16568,2,-8,124,-42.55,-1.91,-0.39,16544.05198251021,0.0
188,1900-01-01 21:52:35.200,21.79715,39.075073,0.0,800,-174,16052,-1,-7,128,-43.31,-1.98,-0.39,16425.01482495526,0.0
189,1900-01-01 21:52:35.300,21.79715,39.075073,0.0,844,-472,16674,-2,-2,140,-44.11,-2.01,-0.42,16500.79016289826,0.0
190,1900-01-01 21:52:35.400,21.79715,39.075073,0.0,986,-494,16398,-2,-3,150,-45.01,-2.04,-0.49,16499.790180484113,0.0
191,1900-01-01 21:52:35.500,21.79715,39.075073,0.0,996,-418,16466,4,-3,150,-45.92,-2.13,-0.56,16709.795211192744,0.0
192,1900-01-01 21:52:35.600,21.79715,39.075073,0.0,944,-540,16970,9,-7,163,-46.87,-2.18,-0.59,16502.890292309407,0.0
193,1900-01-01 21:52:35.700,21.79715,39.075073,0.0,1236,-224,16898,-10,-8,173,-47.9,-2.21,-0.6,16501.87540857099,0.0
194,1900-01-01 21:52:35.800,21.79715,39.075073,0.0,652,-604,16196,-3,-15,175,-48.96,-2.24,-0.67,16230.699800070235,0.0
195,1900-01-01 21:52:35.900,21.79715,39.075073,0.0,698,-650,15378,-18,-17,183,-50.04,-2.22,-0.73,16231.226817465154,0.0
196,1900-01-01 21:52:36.000,21.79715,39.075073,0.0,872,-618,15150,-13,-9,194,-51.18,-2.25,-0.86,15407.549707854263,0.0
197,1900-01-01 21:52:36.100,21.79715,39.075073,0.0,904,-830,17720,-7,-12,200,-52.38,-2.22,-0.99,15412.403706106326,0.0
198,1900-01-01 21:52:36.200,21.79715,39.075073,0.0,652,-908,15298,5,-23,205,-53.62,-2.2,-1.11,16073.394289943864,0.0
199,1900-01-01 21:52:36.300,21.79715,39.075073,0.0,798,-500,17618,0,-10,213,-54.89,-2.17,-1.12,16190.52821868391,0.0
200,1900-01-01 21:52:36.400,21.79715,39.075073,0.0,366,-660,16040,2,-9,220,-56.21,-2.11,-1.17,16190.251387795064,0.0
201,1900-01-01 21:52:36.500,21.79715,39.075073,0.0,472,-750,16160,-8,-14,226,-57.57,-2.1,-1.23,16709.65636989582,0.0
202,1900-01-01 21:52:36.600,21.79715,39.075073,0.0,1280,-744,16674,5,-13,228,-58.96,-2.06,-1.35,16697.263129028062,0.0
203,1900-01-01 21:52:36.700,21.79715,39.075073,0.0,884,-802,16760,8,-23,223,-60.49,-2.02,-1.4,16698.876848459,0.0
204,1900-01-01 21:52:36.800,21.79715,39.075073,0.0,192,-502,17112,4,-10,224,-61.85,-1.94,-1.35,16698.876848459,0.0
205,1900-01-01 21:52:36.900,21.79715,39.075073,0.0,526,-428,15842,-1,-7,227,-63.23,-1.95,-1.27,16776.2510710826,0.0
206,1900-01-01 21:52:37.000,21.79715,39.075073,0.0,402,-756,16438,-9,-14,217,-64.45,-1.97,-1.26,17127.917094614862,0.0
207,1900-01-01 21:52:37.100,21.79715,39.075073,0.0,750,-518,17316,-12,-26,204,-65.86,-1.98,-1.22,16461.23421861192,0.0
208,1900-01-01 21:52:37.200,21.79715,39.075073,0.0,638,-678,17332,-11,-13,203,-67.11,-1.95,-1.27,16636.355971185516,0.0
209,1900-01-01 21:52:37.300,21.79715,39.075073,0.0,552,-996,16372,-5,-6,197,-68.34,-1.94,-1.34,16632.99395779365,0.0
210,1900-01-01 21:52:37.400,21.79715,39.075073,0.0,508,-850,16610,-1,-6,191,-69.4,-1.94,-1.41,16393.9053309454,0.0
211,1900-01-01 21:52:37.500,21.79715,39.075073,0.0,220,-428,16026,2,-9,188,-70.56,-1.93,-1.4,16389.79401945003,0.0
212,1900-01-01 21:52:37.600,21.79715,39.075073,0.0,416,-432,16084,8,-2,186,-71.69,-1.92,-1.37,16561.4308560583,0.0
213,1900-01-01 21:52:37.700,21.79715,39.075073,0.0,782,-570,16548,2,5,180,-72.93,-1.91,-1.33,16509.153339889966,0.0
214,1900-01-01 21:52:37.800,21.79715,39.075073,0.0,616,-330,17684,-6,0,169,-73.99,-1.91,-1.28,16565.849208537424,0.0
215,1900-01-01 21:52:37.900,21.797148,39.075069,6.89,922,-678,16492,3,-3,163,-75.11,-1.9,-1.33,16746.593922347314,0.000469
216,1900-01-01 21:52:38.000,21.797146,39.075069,8.41,498,-460,16722,6,1,158,-76.18,-1.9,-1.27,16973.524206834594,0.000222
217,1900-01-01 21:52:38.100,21.797146,39.075066,8.22,904,178,17296,1,-9,145,-77.11,-1.89,-1.17,16973.524206834594,0.00031
218,1900-01-01 21:52:38.200,21.797144,39.075066,8.23,622,-374,16958,5,-8,137,-77.97,-1.89,-1.11,16970.379253275398,0.000222
219,1900-01-01 21:52:38.300,21.797142,39.075062,8.32,564,-182,17294,14,-12,128,-78.87,-1.83,-1.04,16976.629936474437,0.000469
220,1900-01-01 21:52:38.400,21.79714,39.075062,8.39,774,-24,16268,-3,-5,123,-79.65,-1.77,-0.97,16970.379253275398,0.000222
221,1900-01-01 21:52:38.500,21.79714,39.075058,8.43,944,-444,15124,-9,-20,115,-80.45,-1.74,-0.91,16280.751579702946,0.000413
222,1900-01-01 21:52:38.600,21.797138,39.075058,8.49,618,-160,17194,-4,-5,107,-81.14,-1.66,-0.91,16285.787791814064,0.000222
223,1900-01-01 21:52:38.700,21.797136,39.075054,8.59,434,-556,15612,0,-8,107,-82.12,-1.58,-0.98,16297.83077590389,0.000469
224,1900-01-01 21:52:38.800,21.797134,39.075054,8.65,340,-684,16916,15,-6,100,-82.75,-1.56,-1.02,16372.221596350326,0.000222
225,1900-01-01 21:52:38.900,21.797134,39.07505,8.67,422,-60,16286,12,-1,98,-83.35,-1.56,-0.95,16300.951383278216,0.000413
226,1900-01-01 21:52:39.000,21.797132,39.07505,8.75,66,20,16366,-1,-11,97,-83.95,-1.52,-0.84,16302.291740733877,0.000222
227,1900-01-01 21:52:39.100,21.797131,39.075047,8.98,692,-598,14272,-15,-9,90,-84.52,-1.54,-0.81,16297.68020302276,0.000329
228,1900-01-01 21:52:39.200,21.797129,39.075047,9.32,908,-594,14572,-18,-12,88,-85.05,-1.58,-0.87,16377.623148674535,0.000222
229,1900-01-01 21:52:39.300,21.797127,39.075043,9.66,212,-450,16760,3,-5,93,-85.66,-1.54,-0.95,16772.349268960505,0.000469
230,1900-01-01 21:52:39.400,21.797125,39.075043,9.85,422,-126,17484,3,5,88,-86.16,-1.58,-0.93,16771.35009473,0.000222
231,1900-01-01 21:52:39.500,21.797123,39.075039,10.18,460,-248,17392,3,-1,84,-86.68,-1.6,-0.94,16771.35009473,0.000469
232,1900-01-01 21:52:39.600,21.797121,39.075039,10.91,218,-674,15446,-9,-11,87,-87.2,-1.61,-0.99,16687.895852982783,0.000222
233,1900-01-01 21:52:39.700,21.797117,39.075035,11.16,524,-632,15596,4,0,85,-87.78,-1.67,-1.02,15785.209026173838,0.000607
234,1900-01-01 21:52:39.800,21.797115,39.075035,11.26,364,-390,16678,-2,-13,83,-88.35,-1.63,-0.98,15787.203678929338,0.000222
235,1900-01-01 21:52:40.000,21.797112,39.075031,11.37,528,-518,15770,5,-4,82,-88.85,-1.61,-0.99,15783.522293835429,0.000531
236,1900-01-01 21:52:40.100,21.797108,39.075027,11.58,898,-194,17866,11,0,82,-89.4,-1.67,-0.91,15780.029150796901,0.000607
237,1900-01-01 21:52:40.200,21.797106,39.075024,11.87,118,-102,15592,-11,13,81,-89.96,-1.63,-0.85,15779.795942913837,0.000381
238,1900-01-01 21:52:40.300,21.797104,39.075024,12.02,578,-174,14200,-13,-7,70,-90.42,-1.65,-0.83,15598.043210608183,0.000222
239,1900-01-01 21:52:40.400,21.7971,39.07502,12.12,138,334,16962,3,-1,57,-90.86,-1.67,-0.77,15596.531152791636,0.000607
240,1900-01-01 21:52:40.500,21.797098,39.07502,12.11,422,38,15446,-1,-6,41,-91.16,-1.67,-0.63,16969.41000742218,0.000222
241,1900-01-01 21:52:40.600,21.797094,39.075016,12.14,374,1186,17086,5,-2,20,-91.35,-1.7,-0.36,16981.262261681255,0.000607
242,1900-01-01 21:52:40.700,21.797092,39.075016,12.21,210,720,18192,24,12,-3,-91.4,-1.7,-0.06,16166.234564672133,0.000222
243,1900-01-01 21:52:40.800,21.797091,39.075012,12.24,368,946,16146,-5,-11,-18,-91.31,-1.72,0.29,17105.12262452392,0.000428
244,1900-01-01 21:52:40.900,21.797087,39.075012,12.25,-322,-138,15220,4,1,-20,-91.18,-1.7,0.33,16715.56879080099,0.000445
245,1900-01-01 21:52:41.000,21.797085,39.075008,12.26,776,182,17430,-9,-3,-14,-91.09,-1.68,0.32,16169.103005423647,0.000469
246,1900-01-01 21:52:41.100,21.797083,39.075008,12.32,1090,740,16696,-13,0,-16,-91.0,-1.7,0.39,16718.61357888267,0.000222
247,1900-01-01 21:52:41.200,21.797079,39.075005,12.68,1050,380,16098,-22,11,-17,-90.91,-1.82,0.38,16718.61357888267,0.000542
248,1900-01-01 21:52:41.300,21.797077,39.075001,12.9,850,-396,16736,-20,-10,-16,-90.81,-1.93,0.3,16176.773596734301,0.000469
249,1900-01-01 21:52:41.400,21.797073,39.075001,12.96,458,-92,16152,-1,-5,-19,-90.7,-1.84,0.17,16114.28645643362,0.000445
250,1900-01-01 21:52:41.500,21.797071,39.074997,13.14,668,280,15990,-5,-11,-14,-90.59,-1.81,0.17,16064.79355609651,0.000469
251,1900-01-01 21:52:41.600,21.79707,39.074993,13.36,448,1264,16058,-30,-33,-23,-90.49,-1.79,0.3,15996.31520069544,0.000428
252,1900-01-01 21:52:41.700,21.797066,39.074993,13.77,126,-234,15500,-20,-27,-21,-90.33,-1.55,0.19,15998.725074205131,0.000445
253,1900-01-01 21:52:41.900,21.79706,39.074989,14.45,-52,-36,15270,0,-4,-22,-90.13,-1.4,0.05,16064.489160879035,0.000785
254,1900-01-01 21:52:42.000,21.797056,39.074986,14.71,1058,340,17654,15,37,-39,-89.87,-1.66,0.25,16718.508306664204,0.000542
255,1900-01-01 21:52:42.100,21.797054,39.074982,14.76,586,88,16710,-18,7,-41,-89.56,-1.78,0.45,16720.5035809332,0.000469
256,1900-01-01 21:52:42.300,21.797047,39.074978,15.24,526,472,17058,-42,79,-33,-89.33,-1.92,0.47,16725.99533660105,0.000881
257,1900-01-01 21:52:42.400,21.797045,39.074974,15.53,1028,-164,15728,-22,28,-40,-89.11,-2.28,0.28,16720.286480799306,0.000469
258,1900-01-01 21:52:42.500,21.797041,39.07497,15.77,726,-268,16348,5,-10,-46,-88.8,-2.43,0.13,16356.843338492914,0.000607
259,1900-01-01 21:52:42.600,21.797037,39.07497,15.79,284,22,18156,21,-12,-39,-88.54,-2.24,0.17,15903.526778673968,0.000445
260,1900-01-01 21:52:42.700,21.797035,39.074966,15.87,404,-112,14238,-15,-10,-41,-88.32,-2.02,0.33,16350.481460801086,0.000469
261,1900-01-01 21:52:42.800,21.797031,39.074963,15.97,-166,534,15898,-10,-10,-45,-88.06,-1.82,0.38,16895.577409487963,0.000542
262,1900-01-01 21:52:42.900,21.797028,39.074959,15.94,-154,172,16894,-5,-15,-38,-87.81,-1.59,0.33,15899.796979835937,0.000531
263,1900-01-01 21:52:43.000,21.797026,39.074959,16.05,-462,220,16968,-4,1,-44,-87.53,-1.31,0.3,16238.064663007104,0.000222
264,1900-01-01 21:52:43.100,21.797022,39.074955,16.1,-712,-220,14468,15,-5,-43,-87.27,-1.12,0.27,16247.099556536237,0.000607
265,1900-01-01 21:52:43.200,21.797018,39.074951,16.22,-884,442,16230,-6,-15,-41,-87.0,-0.86,0.34,16247.099556536237,0.000607
266,1900-01-01 21:52:43.300,21.797016,39.074947,16.25,-1542,378,15992,3,-5,-41,-86.68,-0.51,0.38,16017.870520140934,0.000469
267,1900-01-01 21:52:43.400,21.797012,39.074947,16.34,-338,216,16884,-3,3,-43,-86.41,-0.15,0.36,16037.464388113229,0.000445
268,1900-01-01 21:52:43.500,21.797009,39.074944,16.26,-1146,-512,15912,23,-3,-43,-86.16,0.15,0.37,16061.655829957259,0.000455
269,1900-01-01 21:52:43.600,21.797005,39.07494,16.24,-1470,582,14814,-28,-13,-37,-85.92,0.42,0.45,16942.990527058675,0.000607
270,1900-01-01 21:52:43.700,21.797003,39.074936,16.2,-1502,268,17746,-2,1,-39,-85.64,0.81,0.41,15973.28219246126,0.000469
271,1900-01-01 21:52:43.800,21.796999,39.074932,16.13,-1396,-340,17612,3,16,-40,-85.39,1.12,0.33,16280.77184902485,0.000607
272,1900-01-01 21:52:43.900,21.796997,39.074932,16.09,-1040,72,15654,2,3,-41,-85.16,1.3,0.36,16283.692333128873,0.000222
273,1900-01-01 21:52:44.000,21.796993,39.074928,16.1,-1668,94,16214,2,-9,-34,-84.94,1.52,0.36,16299.730181815894,0.000607
274,1900-01-01 21:52:44.200,21.796988,39.074921,15.91,-2096,512,14964,5,11,-39,-84.72,1.76,0.34,16349.07324590602,0.000912
275,1900-01-01 21:52:44.300,21.796984,39.074921,15.67,-2792,8,16574,-14,-10,-37,-84.46,2.19,0.33,16725.49120354915,0.000445
276,1900-01-01 21:52:44.400,21.796982,39.074917,15.57,-2610,-68,16708,-1,11,-33,-84.25,2.69,0.26,16778.384904394105,0.000469
277,1900-01-01 21:52:44.500,21.796978,39.074913,15.54,-2246,-244,16794,13,3,-32,-84.06,3.11,0.19,16911.651604736897,0.000607
278,1900-01-01 21:52:44.600,21.796976,39.074909,15.48,-3672,-688,15242,-23,10,-29,-83.86,3.57,0.15,16859.3112552085,0.000469
279,1900-01-01 21:52:44.700,21.796972,39.074905,15.12,-880,-186,16734,-6,13,-30,-83.67,3.63,0.12,16758.898889843567,0.000607
280,1900-01-01 21:52:44.800,21.79697,39.074905,14.65,-272,-30,15786,-13,-6,-30,-83.46,3.39,0.08,16739.1233940132,0.000222
281,1900-01-01 21:52:44.900,21.796967,39.074902,14.48,-16,-400,18060,21,7,-32,-83.24,3.19,0.04,16862.086584998902,0.000455
282,1900-01-01 21:52:45.000,21.796965,39.074898,14.08,-370,490,16858,6,1,-31,-83.03,3.01,0.1,17551.916704451396,0.000469
283,1900-01-01 21:52:45.100,21.796963,39.074898,13.71,-1688,24,19236,47,36,-27,-82.79,2.96,0.18,17563.623430260624,0.000222
284,1900-01-01 21:52:45.200,21.796959,39.074894,13.32,-1162,340,17548,8,89,-22,-82.61,2.63,0.36,16874.26229498641,0.000607
285,1900-01-01 21:52:45.300,21.796957,39.07489,12.97,-658,540,16130,-3,95,-26,-82.49,2.18,0.49,16144.533564027175,0.000469
286,1900-01-01 21:52:45.400,21.796955,39.07489,12.8,74,-258,14390,-13,77,-27,-82.32,1.53,0.41,15589.333532899987,0.000222
287,1900-01-01 21:52:45.500,21.796953,39.074886,12.71,94,190,15588,-10,56,-28,-82.16,1.02,0.35,15588.288039422418,0.000469
288,1900-01-01 21:52:45.600,21.796951,39.074886,12.46,446,-12,15074,-31,9,-29,-81.99,0.66,0.24,15590.968667789695,0.000222
289,1900-01-01 21:52:45.700,21.796947,39.074883,12.36,542,-304,15648,8,-9,-35,-81.81,0.49,0.09,15594.527373408917,0.000542
290,1900-01-01 21:52:45.800,21.796946,39.074879,12.16,304,68,16818,-7,-12,-28,-81.6,0.44,0.03,15654.35926507374,0.000428
291,1900-01-01 21:52:45.900,21.796944,39.074879,11.81,950,384,15358,-16,-81,-39,-81.37,0.47,0.04,15651.44389505326,0.000222
292,1900-01-01 21:52:46.000,21.796942,39.074875,11.75,232,-136,15808,-14,-150,-38,-81.16,0.87,-0.04,15360.252732295781,0.000469
293,1900-01-01 21:52:46.100,21.79694,39.074871,11.49,-272,-124,15222,-14,-159,-30,-80.94,1.79,-0.15,15222.633280743512,0.000469
294,1900-01-01 21:52:46.200,21.796938,39.074871,11.52,-364,-410,14864,-20,-139,-32,-80.78,2.54,-0.22,15225.149326032897,0.000222
295,1900-01-01 21:52:46.300,21.796936,39.074867,11.53,28,-148,14400,3,-128,-35,-80.57,3.16,-0.26,15227.070762296995,0.000469
296,1900-01-01 21:52:46.400,21.796934,39.074863,11.59,-1948,-454,17328,-1,-95,-17,-80.42,3.88,-0.3,16486.78270615586,0.000469
297,1900-01-01 21:52:46.500,21.796932,39.074863,11.59,-1774,64,17788,3,11,-16,-80.34,4.29,-0.29,16504.98651923109,0.000222
298,1900-01-01 21:52:46.600,21.79693,39.07486,11.58,-632,-22,16474,-28,63,-23,-80.19,4.05,-0.28,16506.186113091055,0.000381
299,1900-01-01 21:52:46.700,21.796928,39.07486,11.49,-1000,-248,14874,-5,71,-10,-80.1,3.63,-0.36,15492.8826239664,0.000222
300,1900-01-01 21:52:46.800,21.796926,39.074856,11.36,-276,-966,14890,-12,79,-11,-80.03,3.0,-0.44,14894.622519553826,0.000469
301,1900-01-01 21:52:46.900,21.796925,39.074852,11.09,126,-674,15478,37,70,-19,-79.93,2.35,-0.49,14892.598161502914,0.000428
302,1900-01-01 21:52:47.000,21.796923,39.074852,11.08,910,-224,14682,26,65,-14,-79.81,1.62,-0.29,15164.985064285425,0.000222
303,1900-01-01 21:52:47.100,21.796921,39.074848,11.08,980,20,15404,28,92,-11,-79.73,0.76,0.0,15435.155198442288,0.000469
304,1900-01-01 21:52:47.200,21.796919,39.074848,11.06,1124,70,15136,26,75,-20,-79.65,-0.07,0.23,15435.300968882984,0.000222
305,1900-01-01 21:52:47.300,21.796917,39.074844,11.07,1132,616,15560,-2,-27,-15,-79.53,-0.72,0.48,15435.300968882984,0.000469
306,1900-01-01 21:52:47.500,21.796913,39.074841,11.32,218,324,17204,-7,-52,-9,-79.46,-0.65,0.5,15562.133658338757,0.000542
307,1900-01-01 21:52:47.600,21.796911,39.074837,11.4,248,46,14986,-26,-43,-25,-79.35,-0.41,0.41,15935.66904776828,0.000469
308,1900-01-01 21:52:47.700,21.796909,39.074833,11.64,50,-224,15934,-1,-24,-24,-79.19,-0.29,0.27,16198.468816527073,0.000469
309,1900-01-01 21:52:47.800,21.796907,39.074833,11.7,226,-170,16196,-21,-32,-15,-79.06,-0.19,0.21,16198.468816527073,0.000222
310,1900-01-01 21:52:47.900,21.796906,39.074829,11.76,254,-186,18254,6,-11,-15,-78.98,-0.09,0.11,16197.25223610474,0.000428
311,1900-01-01 21:52:48.000,21.796904,39.074825,11.82,-66,-130,17258,-16,-37,-11,-78.89,-0.01,0.02,16198.386215916695,0.000469
312,1900-01-01 21:52:48.100,21.796902,39.074825,11.89,108,144,15364,-12,-10,-4,-78.85,0.01,-0.05,17260.404398507006,0.000222
313,1900-01-01 21:52:48.200,21.7969,39.074821,11.97,220,-548,14876,7,14,-2,-78.83,-0.1,-0.1,15920.05100494342,0.000469
314,1900-01-01 21:52:48.300,21.796898,39.074818,12.01,584,-524,18810,27,32,-5,-78.8,-0.36,-0.11,15375.769509198555,0.000381
315,1900-01-01 21:52:48.400,21.796894,39.074818,12.11,1254,380,15918,23,48,6,-78.81,-0.86,-0.01,15949.752474568375,0.000445
316,1900-01-01 21:52:48.500,21.796892,39.074814,12.17,946,458,15224,-14,26,9,-78.86,-1.43,0.21,15971.83896738256,0.000469
317,1900-01-01 21:52:48.600,21.79689,39.07481,12.31,1704,-342,16584,31,22,-4,-78.87,-1.84,0.21,15971.83896738256,0.000469
318,1900-01-01 21:52:48.700,21.796888,39.074806,12.39,2102,804,15320,-29,0,7,-78.87,-2.23,0.23,15364.156338699499,0.000469
319,1900-01-01 21:52:48.800,21.796886,39.074806,12.48,1164,-52,16604,-23,-30,8,-78.93,-2.36,0.15,16624.88063115041,0.000222
320,1900-01-01 21:52:48.900,21.796885,39.074802,12.67,428,-2,15284,-11,-34,8,-78.97,-2.27,-0.08,16642.40727779488,0.000428
321,1900-01-01 21:52:49.000,21.796883,39.074799,12.86,640,-110,16922,24,-1,3,-78.96,-2.15,-0.19,16637.54657393932,0.000381
322,1900-01-01 21:52:49.100,21.796881,39.074795,12.93,1130,1148,17624,9,17,6,-79.01,-2.16,-0.01,16350.530511270881,0.000469
323,1900-01-01 21:52:49.200,21.796879,39.074791,13.0,1056,114,15190,24,-28,5,-79.06,-2.32,0.02,16350.900403341708,0.000469
324,1900-01-01 21:52:49.300,21.796877,39.074791,13.29,354,-310,16338,-25,3,5,-79.09,-2.3,0.02,16360.714165341316,0.000222
325,1900-01-01 21:52:49.400,21.796875,39.074787,13.45,-1656,-2012,13412,-20,-4,5,-79.14,-2.44,-0.1,16360.714165341316,0.000469
326,1900-01-01 21:52:49.500,21.796873,39.074783,13.72,830,-232,18400,3,2,7,-79.16,-2.52,-0.27,16391.465340231178,0.000469
327,1900-01-01 21:52:49.600,21.796869,39.07478,13.99,1484,480,17774,18,-2,5,-79.18,-2.52,-0.23,17663.037337898597,0.000542
328,1900-01-01 21:52:49.700,21.796867,39.074776,14.26,88,96,16386,-19,15,8,-79.23,-2.49,-0.18,17676.305156904255,0.000469
329,1900-01-01 21:52:49.800,21.796865,39.074776,14.37,1076,-282,17642,-15,-4,6,-79.29,-2.61,-0.22,17016.52161870927,0.000222
330,1900-01-01 21:52:49.900,21.796864,39.074772,14.63,1270,-806,16970,-15,29,7,-79.34,-2.69,-0.31,17006.416436157266,0.000428
331,1900-01-01 21:52:50.000,21.79686,39.074768,14.89,1078,-600,16980,8,2,5,-79.37,-2.77,-0.47,17009.948500803876,0.000607
332,1900-01-01 21:52:50.100,21.796858,39.074764,15.55,312,598,16082,-11,9,5,-79.4,-2.88,-0.41,17009.948500803876,0.000469
333,1900-01-01 21:52:50.200,21.796856,39.07476,15.72,1110,-442,14816,-17,-1,10,-79.47,-2.96,-0.42,17014.382386675104,0.000469
334,1900-01-01 21:52:50.300,21.796852,39.074757,15.93,938,-82,17252,3,15,2,-79.5,-2.97,-0.52,16109.38136614811,0.000542
335,1900-01-01 21:52:50.400,21.79685,39.074753,16.25,1460,486,17598,6,23,6,-79.51,-3.05,-0.54,16903.217445208473,0.000469
336,1900-01-01 21:52:50.500,21.796846,39.074749,16.85,934,-40,14810,-26,-32,13,-79.58,-3.07,-0.51,16896.256034991893,0.000607
337,1900-01-01 21:52:50.600,21.796844,39.074745,17.17,1056,-226,16870,-1,-27,1,-79.62,-3.01,-0.56,15915.479885947518,0.000469
338,1900-01-01 21:52:50.700,21.796841,39.074741,17.29,764,-472,14622,-5,-9,8,-79.65,-2.96,-0.62,15915.583558261382,0.000531
339,1900-01-01 21:52:50.800,21.796837,39.074738,17.7,842,50,15888,-7,6,10,-79.7,-2.96,-0.59,16610.33027967837,0.000542
340,1900-01-01 21:52:50.900,21.796835,39.074734,18.22,984,-70,17118,7,17,8,-79.76,-2.98,-0.62,16468.70656730516,0.000469
341,1900-01-01 21:52:51.000,21.796831,39.07473,18.42,1064,-196,16580,-7,-6,7,-79.79,-3.02,-0.63,16472.31009907232,0.000607
342,1900-01-01 21:52:51.100,21.796829,39.074726,18.47,456,-310,16446,17,7,6,-79.84,-2.99,-0.62,16584.13241625862,0.000469
343,1900-01-01 21:52:51.200,21.796825,39.074722,18.65,928,180,16416,8,-8,0,-79.86,-3.0,-0.52,16460.97178176307,0.000607
344,1900-01-01 21:52:51.300,21.796822,39.074718,18.89,680,172,16558,7,7,-4,-79.87,-3.05,-0.35,16424.53445306746,0.000531
345,1900-01-01 21:52:51.400,21.79682,39.074715,19.12,526,-174,15394,-15,-16,-2,-79.84,-2.97,-0.31,15453.085258290655,0.000381
346,1900-01-01 21:52:51.500,21.796816,39.074711,19.32,468,-60,15438,-11,-1,-4,-79.82,-2.93,-0.37,15451.617132196876,0.000607
347,1900-01-01 21:52:51.600,21.796812,39.074707,19.67,1146,-292,13692,2,25,-6,-79.78,-2.91,-0.44,15407.656019005617,0.000607
348,1900-01-01 21:52:51.700,21.796808,39.074703,19.79,642,-92,19612,29,13,-10,-79.74,-2.88,-0.42,15454.045166233986,0.000607
349,1900-01-01 21:52:51.800,21.796806,39.074699,19.88,698,168,15310,-15,-6,1,-79.71,-2.79,-0.35,15342.225523045867,0.000469
350,1900-01-01 21:52:51.900,21.796803,39.074696,20.09,714,-102,18380,14,28,-3,-79.71,-2.83,-0.34,17035.8254276099,0.000455
351,1900-01-01 21:52:52.100,21.796795,39.074684,20.78,530,-638,15326,0,0,-3,-79.69,-2.84,-0.34,15357.17955876013,0.001525
352,1900-01-01 21:52:52.200,21.796791,39.07468,20.9,680,352,17022,-8,7,-4,-79.65,-2.88,-0.32,17035.88236634663,0.000607
353,1900-01-01 21:52:52.300,21.796789,39.074677,21.0,612,-60,15342,-7,2,-2,-79.65,-2.9,-0.38,15357.756346550104,0.000381
354,1900-01-01 21:52:52.400,21.796785,39.074673,21.31,682,-606,17520,19,1,-6,-79.61,-2.88,-0.44,16216.374564001659,0.000607
355,1900-01-01 21:52:52.500,21.796782,39.074669,21.37,1188,-146,14540,-11,-15,-2,-79.59,-2.83,-0.39,16213.665470830463,0.000531
356,1900-01-01 21:52:52.600,21.796778,39.074665,21.55,466,140,16202,-8,-12,-2,-79.58,-2.82,-0.35,16217.004778934981,0.000607
357,1900-01-01 21:52:52.700,21.796774,39.074657,21.71,366,480,17736,-1,6,-4,-79.56,-2.74,-0.35,16208.82648435722,0.000938
358,1900-01-01 21:52:52.800,21.79677,39.074654,21.92,844,-480,15636,-22,-16,-3,-79.53,-2.74,-0.43,16259.047081548168,0.000542
359,1900-01-01 21:52:52.900,21.796766,39.07465,22.31,400,64,16972,-19,-24,-9,-79.5,-2.68,-0.49,16259.489905898032,0.000607
360,1900-01-01 21:52:53.000,21.796762,39.074646,22.52,296,-194,16254,-5,10,-5,-79.46,-2.6,-0.6,15659.352732472693,0.000607
361,1900-01-01 21:52:53.100,21.796759,39.074638,22.62,982,-136,14278,-18,-5,-3,-79.43,-2.61,-0.61,15775.225386662467,0.000891
362,1900-01-01 21:52:53.200,21.796755,39.074635,22.54,854,-54,14754,-12,-13,-5,-79.4,-2.6,-0.67,15775.719191212806,0.000542
363,1900-01-01 21:52:53.300,21.796751,39.074631,22.63,1596,312,15752,9,2,-3,-79.38,-2.6,-0.69,15775.225386662467,0.000607
364,1900-01-01 21:52:53.400,21.796747,39.074627,22.81,-1078,-402,17018,11,-20,-4,-79.36,-2.44,-0.7,17030.697343326843,0.000607
365,1900-01-01 21:52:53.500,21.796743,39.074619,22.91,440,142,22246,-2,-16,-11,-79.33,-2.37,-0.64,17024.2793680085,0.000938
366,1900-01-01 21:52:53.600,21.79674,39.074615,22.99,642,278,17876,18,34,-3,-79.3,-2.17,-0.73,17024.2793680085,0.000531
367,1900-01-01 21:52:53.700,21.796736,39.074612,23.33,-174,-452,14986,20,69,-2,-79.27,-2.43,-0.74,17888.088327152233,0.000542
368,1900-01-01 21:52:53.800,21.796732,39.074608,23.58,1052,480,14980,-5,24,-1,-79.25,-2.62,-0.65,15023.494799812725,0.000607
369,1900-01-01 21:52:53.900,21.796728,39.0746,23.64,2092,136,18560,-16,25,-7,-79.25,-2.79,-0.62,15022.95590088715,0.000938
370,1900-01-01 21:52:54.000,21.796724,39.074596,23.73,1074,-666,13450,-17,-40,-6,-79.23,-2.8,-0.69,16072.500365531183,0.000607
371,1900-01-01 21:52:54.100,21.796721,39.074593,23.81,658,-48,17248,13,-4,-5,-79.19,-2.57,-0.75,16968.09170177955,0.000455
372,1900-01-01 21:52:54.200,21.796717,39.074585,23.92,1114,424,16036,6,-20,-3,-79.16,-2.48,-0.72,16949.968023568657,0.000938
373,1900-01-01 21:52:54.400,21.796707,39.074577,24.19,218,-92,16934,0,-18,-6,-79.14,-2.29,-0.58,16949.914336066715,0.001385
374,1900-01-01 21:52:54.500,21.796703,39.07457,24.46,734,268,17820,8,10,-8,-79.1,-2.2,-0.54,16270.721803288261,0.000849
375,1900-01-01 21:52:54.600,21.7967,39.074566,24.71,780,-22,16252,-8,2,-7,-79.05,-2.23,-0.51,16270.766423251242,0.000531
376,1900-01-01 21:52:54.700,21.796696,39.074562,24.94,1024,-44,14780,-26,-12,-7,-78.99,-2.29,-0.54,16284.242813222849,0.000607
377,1900-01-01 21:52:54.800,21.796692,39.074554,25.06,1698,-424,15398,-4,-22,-12,-78.92,-2.34,-0.65,16295.568109151642,0.000938
378,1900-01-01 21:52:54.900,21.796688,39.074551,25.09,1246,264,18396,-4,-1,-8,-78.85,-2.31,-0.65,15444.586106464621,0.000542
379,1900-01-01 21:52:55.000,21.796682,39.074543,25.14,1190,-144,18780,19,24,-12,-78.78,-2.35,-0.67,18435.011581227714,0.001062
380,1900-01-01 21:52:55.100,21.796679,39.074539,25.24,682,-488,15356,-31,-20,-10,-78.71,-2.35,-0.68,18422.943087357133,0.000531
381,1900-01-01 21:52:55.200,21.796675,39.074535,25.51,996,344,19376,13,5,-11,-78.65,-2.36,-0.73,15380.070741059679,0.000607
382,1900-01-01 21:52:55.400,21.796665,39.074524,26.36,274,0,14038,-22,-17,-9,-78.58,-2.35,-0.69,14268.830085189185,0.001589
383,1900-01-01 21:52:55.500,21.796661,39.074516,26.69,848,-842,12160,-14,-16,-9,-78.5,-2.48,-0.71,14277.205889108694,0.000938
384,1900-01-01 21:52:55.600,21.796658,39.074512,26.7,466,-122,14252,-14,-10,-12,-78.41,-2.52,-0.66,14260.138288249522,0.000531
385,1900-01-01 21:52:55.700,21.796652,39.074505,26.97,2544,10,14464,-24,-15,-10,-78.33,-2.55,-0.63,14489.350710090497,0.000984
386,1900-01-01 21:52:55.800,21.796648,39.074501,27.16,252,-478,15676,-12,-6,-12,-78.26,-2.52,-0.68,15688.44721443139,0.000607
387,1900-01-01 21:52:55.900,21.796644,39.074493,27.23,1582,96,16386,-3,18,-12,-78.18,-2.53,-0.68,16219.21551740404,0.000938
388,1900-01-01 21:52:56.100,21.796635,39.074482,27.47,624,-32,16194,-12,-20,-9,-78.09,-2.51,-0.68,16206.049364357743,0.001514
389,1900-01-01 21:52:56.200,21.796631,39.074478,27.52,904,46,17636,-4,11,-10,-78.03,-2.57,-0.7,16397.98451029882,0.000607
390,1900-01-01 21:52:56.300,21.796625,39.074471,27.69,444,-734,15020,-12,-26,-9,-77.91,-2.5,-0.72,16785.633023511506,0.000984
391,1900-01-01 21:52:56.400,21.796621,39.074467,28.22,626,-334,16774,-10,0,-11,-77.85,-2.52,-0.63,16780.996633096616,0.000607
392,1900-01-01 21:52:56.500,21.796616,39.074459,28.42,346,148,17990,13,13,-10,-77.78,-2.48,-0.62,16778.997467071746,0.000996
393,1900-01-01 21:52:56.700,21.796608,39.074448,29.09,336,-194,14478,3,-9,-11,-77.71,-2.53,-0.61,16784.79955197559,0.001443
394,1900-01-01 21:52:56.800,21.796602,39.07444,29.15,1582,328,16772,9,36,-7,-77.65,-2.6,-0.56,16241.246996459355,0.001062
395,1900-01-01 21:52:56.900,21.796597,39.074436,29.18,1606,-388,12928,-5,34,-6,-77.61,-3.08,-0.49,14821.28455971344,0.000693
396,1900-01-01 21:52:57.000,21.796593,39.074429,29.18,2438,-22,16164,5,0,-8,-77.56,-3.67,-0.44,15564.148290221345,0.000849
397,1900-01-01 21:52:57.100,21.796587,39.074421,29.2,2804,374,14734,-18,-16,-8,-77.49,-4.3,-0.35,15623.19058323235,0.001062
398,1900-01-01 21:52:57.200,21.796583,39.074417,29.26,2790,-40,15372,-1,-25,-9,-77.45,-4.59,-0.37,15623.19058323235,0.000607
399,1900-01-01 21:52:57.300,21.796577,39.074409,29.33,3120,-88,15786,-13,-19,-8,-77.4,-4.91,-0.41,15623.19058323235,0.001062
400,1900-01-01 21:52:57.400,21.796574,39.074402,29.54,2710,-494,14470,7,-10,-6,-77.37,-5.25,-0.41,16030.704787999808,0.000796
401,1900-01-01 21:52:57.500,21.796568,39.074398,29.6,2334,432,16054,4,6,-5,-77.35,-5.76,-0.3,16016.933289490844,0.000785
402,1900-01-01 21:52:57.600,21.796564,39.07439,29.68,3242,80,17952,16,34,-4,-77.33,-6.23,-0.25,16281.321076620288,0.000938
403,1900-01-01 21:52:57.700,21.796558,39.074383,29.91,2188,-16,15674,16,1,-5,-77.3,-6.54,-0.25,16562.79686526403,0.000984
404,1900-01-01 21:52:57.800,21.796555,39.074375,30.21,3212,424,16300,-31,31,-3,-77.3,-6.74,-0.21,16724.944364630934,0.000891
405,1900-01-01 21:52:57.900,21.796549,39.074371,30.68,2908,534,16722,-9,-3,-6,-77.28,-7.02,-0.28,16464.640536616644,0.000785
406,1900-01-01 21:52:58.000,21.796545,39.074364,31.11,2322,52,16470,4,-6,-5,-77.27,-7.17,-0.35,16474.368091068016,0.000849
407,1900-01-01 21:52:58.100,21.796539,39.074356,31.42,1874,-200,14306,-19,-15,1,-77.25,-7.3,-0.37,16642.58705850746,0.001062
408,1900-01-01 21:52:58.200,21.796534,39.074348,31.78,2390,-526,14268,4,-38,-4,-77.24,-7.49,-0.43,16642.58705850746,0.000996
409,1900-01-01 21:52:58.300,21.79653,39.074341,32.19,3040,222,19446,8,24,-6,-77.21,-7.71,-0.41,14626.798556075079,0.000849
410,1900-01-01 21:52:58.500,21.796518,39.074326,33.42,3806,356,18308,-2,23,-5,-77.2,-7.87,-0.4,16174.95471400152,0.002044
411,1900-01-01 21:52:58.600,21.796513,39.074318,34.21,3126,-826,13420,-25,2,-4,-77.18,-7.98,-0.43,18080.77896552026,0.000996
412,1900-01-01 21:52:58.700,21.796509,39.07431,35.02,2834,-1116,15878,-9,22,-5,-77.15,-8.15,-0.43,16154.65134257004,0.000938
413,1900-01-01 21:52:58.800,21.796503,39.074303,35.84,2338,666,17822,6,-10,-5,-77.13,-8.38,-0.42,16150.068606665422,0.000984
414,1900-01-01 21:52:58.900,21.796495,39.074295,36.74,2860,-918,13200,-3,-30,-4,-77.1,-8.51,-0.47,16252.13216781109,0.001214
415,1900-01-01 21:52:59.000,21.79649,39.074287,37.4,2490,-90,17974,5,-2,-6,-77.06,-8.56,-0.38,17995.148901856857,0.000996
416,1900-01-01 21:52:59.100,21.796484,39.074276,38.16,2060,40,16060,21,7,-3,-77.05,-8.61,-0.4,17599.934658969618,0.001317
417,1900-01-01 21:52:59.200,21.796478,39.074268,39.04,2496,116,18766,1,19,-10,-77.0,-8.74,-0.32,17600.27147517901,0.001062
418,1900-01-01 21:52:59.300,21.796471,39.074257,39.73,2898,124,17422,23,12,-5,-76.96,-8.86,-0.26,17606.276835265315,0.001377
419,1900-01-01 21:52:59.400,21.796465,39.074249,40.46,2672,214,16762,7,-7,-7,-76.95,-8.92,-0.19,17626.09213637555,0.001062
420,1900-01-01 21:52:59.500,21.796457,39.074238,41.24,2538,-750,19778,15,9,-10,-76.91,-8.92,-0.18,17661.819385329472,0.001443
421,1900-01-01 21:52:59.600,21.796452,39.07423,41.86,2920,-544,13958,5,-19,-4,-76.84,-9.06,-0.13,16994.94207109868,0.000996
422,1900-01-01 21:52:59.800,21.796436,39.074211,43.2,2990,260,18124,22,2,-7,-76.82,-9.1,-0.06,16459.98602672554,0.002648
423,1900-01-01 21:52:59.900,21.796431,39.0742,44.39,2796,230,14548,-14,2,1,-76.8,-9.14,-0.04,14841.182702197288,0.001264
424,1900-01-01 21:53:00.000,21.796423,39.074192,45.2,2472,-300,16218,4,-15,-1,-76.78,-9.17,-0.08,14852.084298171756,0.001214
425,1900-01-01 21:53:00.100,21.796415,39.074181,46.1,3028,-1032,13996,3,2,9,-76.79,-9.1,-0.14,14817.284501554257,0.001443
426,1900-01-01 21:53:00.200,21.796406,39.074169,47.42,3702,-2,14194,-16,2,8,-76.83,-9.07,-0.16,16215.927602206419,0.001593
427,1900-01-01 21:53:00.400,21.796392,39.074146,48.51,2728,-532,15982,4,-4,4,-76.86,-9.11,-0.17,16257.1783529615,0.002839
428,1900-01-01 21:53:00.500,21.796383,39.074139,49.53,2204,-80,18260,13,2,3,-76.88,-9.11,-0.17,16215.079648278019,0.001234
429,1900-01-01 21:53:00.600,21.796375,39.074127,50.4,2968,-250,18696,18,11,4,-76.9,-9.0,-0.23,17986.664615764646,0.001525
430,1900-01-01 21:53:00.700,21.796368,39.074116,51.16,2490,-366,14862,-23,0,7,-76.93,-8.87,-0.24,17947.59638503162,0.001377
431,1900-01-01 21:53:00.800,21.796358,39.074104,51.25,1634,-352,17810,-3,-2,3,-76.96,-8.67,-0.33,15884.245654106462,0.001665
432,1900-01-01 21:53:00.900,21.79635,39.074093,51.74,1582,176,15448,4,0,7,-76.97,-8.44,-0.4,15757.935017000165,0.001443
433,1900-01-01 21:53:01.000,21.796343,39.074081,52.12,1336,-176,15798,6,2,7,-77.0,-8.39,-0.48,15883.253319140887,0.001463
434,1900-01-01 21:53:01.100,21.796333,39.07407,52.77,1778,276,15672,-1,13,6,-77.03,-8.32,-0.46,15898.712652287291,0.001589
435,1900-01-01 21:53:01.200,21.796326,39.074059,53.03,1912,-600,16558,-3,-4,1,-77.05,-8.13,-0.56,15903.391587960097,0.001377
436,1900-01-01 21:53:01.300,21.796316,39.074047,53.37,2016,-584,16976,31,12,6,-77.06,-7.95,-0.61,15778.233234427738,0.001665
437,1900-01-01 21:53:01.400,21.796309,39.074036,53.57,1382,-424,13450,11,-53,4,-77.09,-7.81,-0.53,16636.167106638477,0.001377
438,1900-01-01 21:53:01.500,21.796299,39.074024,53.81,1336,476,15498,-21,6,5,-77.1,-7.43,-0.49,17047.908258786472,0.001665
439,1900-01-01 21:53:01.600,21.796291,39.074009,54.04,1554,178,17300,-12,24,3,-77.13,-7.3,-0.54,15563.207638530046,0.001786
440,1900-01-01 21:53:01.700,21.796282,39.073997,54.34,3240,928,21648,45,54,2,-77.15,-7.48,-0.63,16758.539077139154,0.001593
441,1900-01-01 21:53:01.800,21.796274,39.073986,55.01,1412,-306,15040,-8,-34,3,-77.18,-7.46,-0.55,17366.860050106927,0.001443
442,1900-01-01 21:53:01.900,21.796265,39.073975,55.41,-144,-90,16698,-7,-28,-3,-77.14,-6.87,-0.6,16757.835421079897,0.001514
443,1900-01-01 21:53:02.000,21.796255,39.073963,55.83,1512,614,20876,-10,39,3,-77.14,-6.72,-0.6,16241.74387188765,0.001665
444,1900-01-01 21:53:02.100,21.796246,39.073952,56.28,-30,-1178,16180,-2,48,4,-77.18,-7.07,-0.64,16248.344407969693,0.001514
445,1900-01-01 21:53:02.200,21.796238,39.07394,56.9,2644,608,14676,-31,-45,-3,-77.19,-7.07,-0.71,16248.467496967214,0.001525
446,1900-01-01 21:53:02.300,21.796228,39.073925,57.23,1486,-110,15374,-25,-52,-5,-77.15,-6.64,-0.83,16249.440113431601,0.001907
447,1900-01-01 21:53:02.500,21.796209,39.073902,58.7,1178,-248,16204,-12,21,1,-77.14,-6.44,-0.95,16271.819689266471,0.003178
448,1900-01-01 21:53:02.600,21.7962,39.073887,59.03,1480,-614,16682,-27,19,0,-77.14,-6.42,-1.02,16728.317907070035,0.001844
449,1900-01-01 21:53:02.700,21.79619,39.073875,59.35,1230,-44,17812,-7,-21,0,-77.13,-6.44,-1.13,17528.966312934714,0.001665
450,1900-01-01 21:53:02.800,21.796181,39.073864,59.37,646,-186,19562,26,8,0,-77.13,-6.39,-1.22,17547.51412593818,0.001514
451,1900-01-01 21:53:02.900,21.796173,39.073849,59.45,1988,-608,17484,4,28,-3,-77.13,-6.4,-1.25,17551.446208218855,0.001786
452,1900-01-01 21:53:03.000,21.796164,39.073837,59.57,1570,-168,16574,6,6,-1,-77.12,-6.3,-1.29,16649.233375744363,0.001593
453,1900-01-01 21:53:03.100,21.796154,39.073822,59.85,1528,-126,15486,-25,2,3,-77.13,-6.18,-1.29,16484.666693627747,0.001907
454,1900-01-01 21:53:03.200,21.796144,39.073811,60.29,1752,-350,16406,7,3,-2,-77.13,-6.14,-1.37,15562.107954901225,0.001589
455,1900-01-01 21:53:03.300,21.796135,39.073799,60.76,1462,-1072,11580,-4,-13,-5,-77.1,-6.13,-1.32,15555.369362377738,0.001593
456,1900-01-01 21:53:03.400,21.796124,39.073784,61.39,854,896,14970,15,-74,-26,-77.03,-6.04,-1.03,16450.41531390621,0.001973
457,1900-01-01 21:53:03.500,21.796114,39.073772,61.74,-860,-8,16552,43,-28,-24,-76.88,-5.66,-0.76,16583.880607384992,0.001665
458,1900-01-01 21:53:03.600,21.796104,39.073757,61.92,1208,670,18766,38,24,-17,-76.77,-5.76,-0.42,16585.848666860555,0.001907
459,1900-01-01 21:53:03.700,21.796095,39.073746,62.26,926,446,16632,20,-29,-17,-76.69,-5.86,-0.15,16583.880607384992,0.001514
460,1900-01-01 21:53:03.800,21.796083,39.07373,62.59,960,514,15962,-18,0,-18,-76.6,-5.73,0.03,16663.727554181867,0.002124
461,1900-01-01 21:53:04.000,21.796064,39.073704,63.45,924,-332,14754,-17,1,-16,-76.51,-5.65,0.02,16661.066112347075,0.003416
462,1900-01-01 21:53:04.100,21.796053,39.073689,64.51,352,-670,16650,-16,-3,0,-76.44,-5.45,-0.19,15992.168208219922,0.001973
463,1900-01-01 21:53:04.200,21.796043,39.073677,64.75,1080,-888,17646,-19,12,5,-76.45,-5.35,-0.38,15970.666235320303,0.001665
464,1900-01-01 21:53:04.300,21.796034,39.073662,65.01,524,-298,14984,-20,-20,7,-76.48,-5.26,-0.58,15972.132731729975,0.001844
465,1900-01-01 21:53:04.400,21.796022,39.073647,65.01,-128,-804,15948,-19,-32,5,-76.51,-4.91,-0.8,15968.40693369254,0.002044
466,1900-01-01 21:53:04.500,21.796013,39.073635,65.22,70,-840,14616,-29,4,8,-76.52,-4.49,-0.97,15966.40948992603,0.001593
467,1900-01-01 21:53:04.600,21.796003,39.07362,65.72,-96,-672,15986,-2,-14,7,-76.55,-4.1,-1.13,15968.285568588759,0.001907
468,1900-01-01 21:53:04.700,21.795992,39.073605,65.75,172,-1024,15946,-6,-10,7,-76.57,-3.65,-1.26,16008.086081727572,0.001973
469,1900-01-01 21:53:04.800,21.795982,39.073593,65.96,-32,-696,16010,-8,-2,7,-76.61,-3.41,-1.34,16036.929007762054,0.001665
470,1900-01-01 21:53:04.900,21.795971,39.073578,65.92,-252,-1766,16448,19,-1,8,-76.65,-3.08,-1.46,16042.74602429397,0.001973
471,1900-01-01 21:53:05.000,21.795961,39.073563,65.99,-314,-924,17816,16,-14,6,-76.67,-2.84,-1.52,16488.970980628234,0.001907
472,1900-01-01 21:53:05.100,21.79595,39.073551,66.0,294,-1232,15766,24,6,8,-76.71,-2.57,-1.59,17110.50706437422,0.001741
473,1900-01-01 21:53:05.200,21.79594,39.073536,65.99,-878,-1134,18322,21,9,10,-76.76,-2.23,-1.52,17111.346527962083,0.001907
474,1900-01-01 21:53:05.300,21.795929,39.073521,65.99,-748,360,17070,16,1,7,-76.8,-1.96,-1.5,16380.172526563938,0.001973
475,1900-01-01 21:53:05.400,21.795919,39.073505,65.98,-896,-214,16182,3,-17,7,-76.83,-1.66,-1.51,16380.172526563938,0.001991
476,1900-01-01 21:53:05.500,21.79591,39.073494,65.93,-784,-84,16360,5,7,5,-76.88,-1.28,-1.54,16378.703855922176,0.001514
477,1900-01-01 21:53:05.600,21.795898,39.073479,65.89,-778,-482,14064,-26,11,9,-76.92,-0.97,-1.61,16379.886446492845,0.002044
478,1900-01-01 21:53:05.700,21.795889,39.073463,65.83,-356,28,19072,-2,10,5,-76.96,-0.74,-1.78,16376.070590956793,0.001931
479,1900-01-01 21:53:05.800,21.795877,39.073452,65.73,-526,-482,19412,24,35,7,-77.0,-0.54,-1.92,15999.914249770216,0.001752
480,1900-01-01 21:53:05.900,21.795868,39.073437,65.68,-542,-626,15984,3,6,5,-77.06,-0.28,-1.97,16004.665944655015,0.001844
481,1900-01-01 21:53:06.000,21.795856,39.073421,65.62,-270,-620,15192,2,-6,4,-77.08,-0.18,-1.97,15936.754123722936,0.002124
482,1900-01-01 21:53:06.100,21.795847,39.07341,65.62,-826,-1232,15916,15,-12,4,-77.12,0.06,-1.95,15930.594213650664,0.001514
483,1900-01-01 21:53:06.200,21.795835,39.073395,65.59,220,-252,14122,-7,-10,4,-77.16,0.24,-1.87,15930.35956907439,0.002044
484,1900-01-01 21:53:06.300,21.795826,39.07338,65.54,-252,-628,16536,-10,-18,2,-77.18,0.3,-1.83,15932.635186936277,0.001844
485,1900-01-01 21:53:06.500,21.795805,39.073353,65.24,-810,46,17398,-11,-38,4,-77.22,0.67,-1.91,14306.439529107163,0.003636
486,1900-01-01 21:53:06.600,21.795795,39.073341,65.25,-368,-1656,14302,6,65,8,-77.25,0.83,-1.96,16537.984036756112,0.001665
487,1900-01-01 21:53:06.700,21.795784,39.073326,65.22,1644,184,13862,-10,-6,9,-77.3,0.45,-1.85,15634.39925292942,0.001973
488,1900-01-01 21:53:06.800,21.795774,39.073311,65.18,1502,72,16744,-13,-44,4,-77.34,0.28,-1.72,14392.6700788978,0.001907
489,1900-01-01 21:53:06.900,21.795763,39.073299,64.98,-918,-588,15630,-31,2,7,-77.38,0.48,-1.72,15713.0088779966,0.001741
490,1900-01-01 21:53:07.000,21.795753,39.073284,64.88,2546,-716,14260,-56,1,25,-77.46,0.08,-1.97,16714.822643390507,0.001907
491,1900-01-01 21:53:07.200,21.795732,39.073257,64.86,738,-3320,16664,-80,-50,64,-77.7,-0.11,-2.67,17026.304355320328,0.003636
492,1900-01-01 21:53:07.300,21.795723,39.073242,64.88,1088,-5884,16862,-97,-4,123,-78.37,-0.11,-4.24,17624.90102099867,0.001844
493,1900-01-01 21:53:07.400,21.795712,39.073231,64.89,1636,-5636,18136,-60,11,148,-79.35,-0.41,-6.09,17801.42623499589,0.001669
494,1900-01-01 21:53:07.500,21.795702,39.073215,64.84,-132,-6336,16422,3,-8,152,-80.42,-0.71,-7.76,18191.647424024028,0.001991
495,1900-01-01 21:53:07.600,21.795691,39.0732,64.86,894,-5188,18042,51,11,141,-81.67,-0.98,-9.02,18050.743364194175,0.001973
496,1900-01-01 21:53:07.700,21.795681,39.073189,64.89,1028,-3820,17266,59,-3,111,-82.51,-1.19,-9.38,17667.108195740468,0.001589
497,1900-01-01 21:53:07.900,21.79566,39.073162,64.93,416,-2412,14922,90,6,61,-83.1,-1.36,-9.1,17417.004794165958,0.003636
498,1900-01-01 21:53:08.000,21.795649,39.073147,64.93,994,16,17226,108,20,1,-83.33,-1.61,-8.02,15873.460114291402,0.001973
499,1900-01-01 21:53:08.100,21.795639,39.073135,64.9,394,2346,15868,86,-8,-56,-83.16,-1.66,-6.2,16045.322558303402,0.001665
500,1900-01-01 21:53:08.200,21.795628,39.07312,64.97,-52,3938,14898,62,-51,-114,-82.63,-1.4,-4.19,16349.43338467728,0.001973
